,county,state,stcode,ctycode,2001,2002,2003,2004,2005,2006,2007,2008,2009,2010,2011,2012,2013,2014,2015,2016,2017,2018,2019,2020,lat,lon,FIPS
0,Autauga County,Alabama,1,1,0,0,0,0,0,0,0,0,0,0,0,0,0,0,0,2,0,0,1,0,32.536382,-86.64449,01001
1,Baldwin County,Alabama,1,3,0,1,0,0,0,0,0,0,1,0,1,1,0,3,1,2,2,0,0,0,30.659218,-87.746067,01003
2,Barbour County,Alabama,1,5,0,0,0,0,0,0,0,0,0,0,1,0,0,0,0,0,0,0,1,0,31.87067,-85.405456,01005
3,Bibb County,Alabama,1,7,0,0,0,0,0,0,0,0,0,0,0,0,0,1,0,0,0,1,0,0,33.015893,-87.127148,01007
4,Blount County,Alabama,1,9,0,0,0,0,0,0,0,0,0,0,1,0,0,0,0,0,0,2,0,1,33.977448,-86.567246,01009
5,Bullock County,Alabama,1,11,0,0,0,0,0,0,0,0,0,0,0,0,0,0,0,0,1,0,0,0,32.101759,-85.717261,01011
6,Butler County,Alabama,1,13,0,0,0,0,0,0,0,0,0,0,1,0,0,0,0,0,0,0,0,0,31.751667,-86.681969,01013
7,Calhoun County,Alabama,1,15,0,0,0,0,0,0,1,0,0,0,2,1,3,2,0,1,0,0,3,0,33.771706,-85.822513,01015
8,Chambers County,Alabama,1,17,0,0,0,0,0,0,2,0,0,0,0,0,0,0,1,0,0,1,2,1,32.917943,-85.391812,01017
9,Cherokee County,Alabama,1,19,0,0,0,0,0,0,0,0,0,0,0,0,0,0,0,0,0,0,0,0,34.069515,-85.654242,01019
10,Chilton County,Alabama,1,21,0,0,1,0,0,0,0,0,0,0,0,0,0,0,0,0,1,0,1,1,32.85406,-86.726628,01021
11,Choctaw County,Alabama,1,23,0,0,0,0,0,0,0,0,0,0,0,0,0,0,0,0,0,1,0,0,31.991008,-88.248887,01023
12,Clarke County,Alabama,1,25,0,0,0,0,0,0,0,0,0,0,0,0,0,0,0,0,0,0,0,0,31.685521,-87.818624,01025
13,Clay County,Alabama,1,27,0,0,0,0,0,0,0,0,0,0,0,0,0,0,1,0,1,1,0,0,33.267809,-85.862051,01027
14,Cleburne County,Alabama,1,29,0,0,0,0,0,0,0,0,0,0,0,0,0,1,0,0,0,0,1,0,33.671981,-85.516109,01029
15,Coffee County,Alabama,1,31,0,0,0,1,0,0,0,0,0,1,0,0,0,0,0,1,1,0,0,0,31.402183,-85.989201,01031
16,Colbert County,Alabama,1,33,0,0,0,0,0,0,0,0,0,0,0,0,0,0,0,0,0,1,2,0,34.703112,-87.801457,01033
17,Conecuh County,Alabama,1,35,0,0,0,0,0,0,0,0,0,0,0,0,0,0,0,0,0,0,0,0,31.428293,-86.992029,01035
18,Coosa County,Alabama,1,37,0,0,0,0,0,0,0,0,0,0,0,0,0,1,0,0,0,0,1,0,32.931445,-86.243482,01037
19,Covington County,Alabama,1,39,0,0,0,0,0,0,0,0,0,0,0,0,0,0,0,0,1,1,0,0,31.243987,-86.448721,01039
20,Crenshaw County,Alabama,1,41,0,0,0,0,0,0,0,0,0,0,0,0,0,0,0,0,0,0,0,0,31.732826,-86.319222,01041
21,Cullman County,Alabama,1,43,0,0,0,0,0,0,0,1,0,0,0,0,1,0,0,1,1,1,1,0,34.131923,-86.869267,01043
22,Dale County,Alabama,1,45,0,0,0,0,0,0,0,1,0,0,0,0,0,0,0,0,1,2,0,0,31.430654,-85.609476,01045
23,Dallas County,Alabama,1,47,0,0,0,0,0,0,0,0,0,0,0,0,0,0,1,1,1,0,1,0,32.33354,-87.114356,01047
24,DeKalb County,Alabama,1,49,0,0,1,1,0,0,0,0,0,0,0,1,0,0,0,1,1,4,5,1,34.460929,-85.803992,01049
25,Elmore County,Alabama,1,51,0,0,0,0,0,0,0,0,0,0,0,0,0,5,1,0,0,1,2,0,32.597229,-86.142739,01051
26,Escambia County,Alabama,1,53,0,0,0,0,0,0,0,0,0,0,0,0,0,0,0,0,0,0,1,0,31.121748,-87.168429,01053
27,Etowah County,Alabama,1,55,0,0,0,0,0,0,0,0,0,0,0,0,0,0,0,0,0,0,1,0,34.047638,-86.03442,01055
28,Fayette County,Alabama,1,57,0,0,0,0,0,0,0,0,0,0,0,0,0,0,0,1,1,0,3,0,33.732249,-87.752049,01057
29,Franklin County,Alabama,1,59,0,0,0,0,0,0,0,0,0,0,0,0,0,0,0,0,1,0,0,0,34.441988,-87.842815,01059
30,Geneva County,Alabama,1,61,0,0,0,0,0,0,0,0,0,0,1,0,0,1,0,0,0,1,1,0,31.090866,-85.824346,01061
31,Greene County,Alabama,1,63,0,0,0,0,0,0,1,0,0,0,0,0,0,0,0,1,0,0,0,0,32.844497,-87.964201,01063
32,Hale County,Alabama,1,65,0,0,0,0,0,0,0,0,0,0,0,0,0,1,0,0,1,1,1,0,32.752796,-87.623061,01065
33,Henry County,Alabama,1,67,0,0,0,0,0,0,0,0,0,0,0,0,0,0,0,0,0,0,0,0,31.516978,-85.239971,01067
34,Houston County,Alabama,1,69,0,0,0,0,0,0,0,0,1,0,1,1,0,0,0,1,1,1,1,1,31.158193,-85.296398,01069
35,Jackson County,Alabama,1,71,0,0,0,0,0,0,1,1,0,0,0,0,0,1,0,1,2,0,3,0,34.763522,-85.9774,01071
36,Jefferson County,Alabama,1,73,4,2,3,2,0,2,2,0,0,0,0,3,0,4,3,2,4,4,3,0,33.553444,-86.896536,01073
37,Lamar County,Alabama,1,75,0,0,0,0,0,0,0,0,0,0,0,0,1,1,0,0,0,0,2,0,33.787085,-88.087431,01075
38,Lauderdale County,Alabama,1,77,0,0,0,0,0,0,0,0,0,1,0,1,1,0,0,0,0,0,0,0,34.904122,-87.650997,01077
39,Lawrence County,Alabama,1,79,0,0,0,0,0,0,0,0,0,0,0,0,0,0,0,0,0,0,0,0,34.529776,-87.321865,01079
40,Lee County,Alabama,1,81,0,0,0,0,0,1,1,0,0,0,1,1,0,2,0,1,1,1,2,0,32.604064,-85.353048,01081
41,Limestone County,Alabama,1,83,0,0,0,0,0,0,0,0,0,0,2,0,0,1,0,0,0,0,2,0,34.810239,-86.9814,01083
42,Lowndes County,Alabama,1,85,0,0,0,0,0,0,0,0,0,0,0,1,0,0,0,0,0,0,0,0,32.147888,-86.650586,01085
43,Macon County,Alabama,1,87,0,0,0,0,0,0,0,0,0,0,0,0,0,0,0,0,0,0,0,0,32.387027,-85.692887,01087
44,Madison County,Alabama,1,89,1,3,3,0,3,4,0,2,1,0,3,5,3,5,1,1,3,7,5,2,34.764238,-86.55108,01089
45,Marengo County,Alabama,1,91,0,0,0,0,0,0,1,0,0,0,0,0,0,2,1,0,1,0,2,0,32.247591,-87.791091,01091
46,Marion County,Alabama,1,93,0,0,0,1,0,0,0,0,0,0,0,0,1,0,0,0,0,0,1,0,34.138219,-87.881551,01093
47,Marshall County,Alabama,1,95,0,0,0,0,0,0,0,0,0,0,1,0,2,3,1,1,2,0,0,0,34.309564,-86.321668,01095
48,Mobile County,Alabama,1,97,3,2,0,0,0,3,0,3,0,0,0,5,5,1,5,4,3,0,2,1,30.684573,-88.196568,01097
49,Monroe County,Alabama,1,99,0,0,0,0,0,0,0,0,0,0,0,0,0,2,0,0,0,0,0,1,31.580332,-87.383266,01099
50,Montgomery County,Alabama,1,101,2,2,0,0,0,1,0,0,0,0,2,0,1,4,0,0,0,0,3,0,32.203651,-86.203831,01101
51,Morgan County,Alabama,1,103,0,0,0,0,0,0,1,1,0,0,1,1,0,2,0,0,1,0,0,0,34.454484,-86.846402,01103
52,Perry County,Alabama,1,105,0,0,0,0,0,0,0,0,0,0,0,0,0,0,0,0,0,0,0,2,32.639005,-87.293827,01105
53,Pickens County,Alabama,1,107,0,0,0,0,0,0,0,0,0,0,0,0,0,0,0,1,0,0,1,0,33.296809,-88.096878,01107
54,Pike County,Alabama,1,109,0,0,0,0,0,0,0,0,0,0,0,0,0,0,0,0,0,0,0,0,31.798726,-85.941997,01109
55,Randolph County,Alabama,1,111,0,0,0,0,0,0,0,0,0,0,0,0,0,0,0,0,0,0,0,0,33.296475,-85.464068,01111
56,Russell County,Alabama,1,113,0,0,0,0,0,0,0,0,0,0,0,0,0,2,1,1,1,0,0,0,32.289811,-85.18698,01113
57,St. Clair County,Alabama,1,115,0,0,0,0,0,0,0,0,0,0,2,0,0,2,0,1,0,2,1,0,33.712963,-86.315663,01115
58,Shelby County,Alabama,1,117,0,0,0,0,0,0,1,0,0,0,1,2,4,6,2,4,1,0,0,0,33.262937,-86.678104,01117
59,Sumter County,Alabama,1,119,0,0,0,0,0,0,0,0,0,0,0,1,1,0,0,0,0,0,1,0,32.597481,-88.200057,01119
60,Talladega County,Alabama,1,121,0,0,0,1,0,0,0,0,0,0,0,1,0,0,1,0,0,0,0,0,33.369277,-86.175805,01121
61,Tallapoosa County,Alabama,1,123,0,0,0,0,0,0,1,0,0,0,1,0,1,3,1,1,1,0,0,0,32.863369,-85.799553,01123
62,Tuscaloosa County,Alabama,1,125,0,1,0,0,0,0,0,0,0,0,0,0,0,7,4,7,4,3,7,3,33.290202,-87.52286,01125
63,Walker County,Alabama,1,127,0,0,0,0,0,0,0,0,0,0,2,0,0,1,0,1,1,0,2,0,33.791571,-87.301092,01127
64,Washington County,Alabama,1,129,0,0,0,0,0,0,0,0,0,0,0,0,0,0,0,0,0,0,0,0,31.406974,-88.202078,01129
65,Wilcox County,Alabama,1,131,0,0,0,0,0,0,0,0,0,0,0,0,0,0,0,0,0,0,0,0,31.99033,-87.302205,01131
66,Winston County,Alabama,1,133,0,0,0,0,0,0,0,0,0,0,0,0,0,0,0,0,0,0,0,0,34.155888,-87.364147,01133
96,Apache County,Arizona,4,1,0,0,0,0,0,0,0,0,0,0,0,0,1,0,0,0,0,0,0,0,35.385845,-109.493747,04001
97,Cochise County,Arizona,4,3,0,0,0,0,0,0,0,0,0,1,0,2,0,2,1,0,0,0,2,0,31.881793,-109.75412,04003
98,Coconino County,Arizona,4,5,0,0,0,0,0,1,2,0,0,0,0,1,1,1,0,1,3,2,0,0,35.829692,-111.773728,04005
99,Gila County,Arizona,4,7,0,0,0,0,0,0,0,0,0,0,0,0,0,3,1,0,1,0,0,0,33.789618,-110.81187,04007
100,Graham County,Arizona,4,9,0,0,1,0,0,0,0,0,0,0,0,0,0,1,0,0,0,0,0,1,32.931828,-109.87831,04009
101,Greenlee County,Arizona,4,11,0,0,0,0,0,0,0,0,0,0,0,0,0,0,0,0,0,0,0,0,33.238872,-109.242323,04011
102,La Paz County,Arizona,4,12,0,0,0,0,0,0,0,0,0,0,0,0,1,0,0,0,0,0,0,0,33.727625,-114.038793,04012
103,Maricopa County,Arizona,4,13,2,3,1,10,7,6,0,8,3,0,7,3,16,10,2,5,14,1,1,0,33.346541,-112.495534,04013
104,Mohave County,Arizona,4,15,1,0,0,0,0,0,0,0,0,0,0,1,1,1,1,1,3,1,0,0,35.717705,-113.749689,04015
105,Navajo County,Arizona,4,17,0,0,0,0,0,0,0,0,0,1,0,1,2,0,0,0,0,0,0,0,35.390934,-110.320908,04017
106,Pima County,Arizona,4,19,0,1,1,2,3,2,0,0,4,0,4,3,7,1,7,3,3,1,7,0,32.128237,-111.783018,04019
107,Pinal County,Arizona,4,21,0,0,0,1,0,1,0,0,0,0,1,0,1,1,0,1,1,0,0,1,32.91891,-111.367257,04021
108,Santa Cruz County,Arizona,4,23,0,0,0,0,0,0,0,0,0,0,0,0,2,1,0,0,0,0,0,0,31.525904,-110.84519,04023
109,Yavapai County,Arizona,4,25,0,0,1,0,0,0,0,0,0,0,3,2,0,0,0,2,1,1,0,0,34.630044,-112.573745,04025
110,Yuma County,Arizona,4,27,0,0,0,0,0,0,0,0,0,0,0,0,0,0,0,0,2,1,0,0,32.773942,-113.910905,04027
111,Arkansas County,Arkansas,5,1,0,0,0,0,0,0,0,0,0,0,0,0,0,0,0,0,0,0,0,0,34.289574,-91.376547,05001
112,Ashley County,Arkansas,5,3,0,0,0,0,0,0,0,0,0,0,0,0,0,0,0,0,0,0,0,1,33.190835,-91.772267,05003
113,Baxter County,Arkansas,5,5,0,0,0,0,0,0,0,0,0,0,0,0,0,0,0,0,0,0,0,0,36.28071,-92.330438,05005
114,Benton County,Arkansas,5,7,0,1,0,0,0,0,1,0,0,0,0,0,0,0,0,0,0,0,0,1,36.337825,-94.256187,05007
115,Boone County,Arkansas,5,9,0,0,0,0,0,0,0,0,0,0,0,0,0,0,0,0,0,0,0,0,36.304308,-93.079204,05009
116,Bradley County,Arkansas,5,11,0,0,0,0,0,0,0,0,0,0,0,0,0,0,0,0,0,0,0,0,33.463819,-92.168164,05011
117,Calhoun County,Arkansas,5,13,0,0,0,0,0,0,0,0,0,0,0,0,0,0,0,0,0,0,0,0,33.56046,-92.513879,05013
118,Carroll County,Arkansas,5,15,0,0,0,0,0,0,0,0,0,0,0,0,0,0,0,0,0,0,0,0,36.337774,-93.541663,05015
119,Chicot County,Arkansas,5,17,0,0,0,0,0,0,0,0,0,0,0,0,0,0,0,0,0,0,0,0,33.267139,-91.297158,05017
120,Clark County,Arkansas,5,19,0,0,0,0,0,0,0,0,0,0,0,0,0,0,0,0,0,0,0,1,34.053312,-93.176205,05019
121,Clay County,Arkansas,5,21,0,0,0,0,0,0,0,0,0,0,0,0,0,0,0,0,0,0,0,1,36.367302,-90.418704,05021
122,Cleburne County,Arkansas,5,23,1,0,0,0,0,0,0,0,0,0,0,0,0,0,0,0,0,0,0,0,35.566288,-92.059974,05023
123,Cleveland County,Arkansas,5,25,0,0,0,0,0,0,0,0,0,0,0,0,0,0,0,0,0,0,1,0,33.893201,-92.188714,05025
124,Columbia County,Arkansas,5,27,0,0,0,0,0,0,0,0,0,0,0,0,0,0,0,0,0,0,0,0,33.21507,-93.226901,05027
125,Conway County,Arkansas,5,29,0,0,0,0,0,0,0,0,0,0,0,0,0,0,0,0,0,0,1,0,35.265702,-92.689248,05029
126,Craighead County,Arkansas,5,31,0,0,0,0,0,0,0,0,0,0,0,0,0,0,0,0,0,0,0,0,35.828268,-90.630411,05031
127,Crawford County,Arkansas,5,33,2,0,0,0,0,0,0,0,0,0,0,0,0,0,0,0,0,0,0,0,35.583041,-94.236224,05033
128,Crittenden County,Arkansas,5,35,0,0,0,0,0,0,0,0,0,0,0,0,0,0,0,0,0,0,0,0,35.211878,-90.315331,05035
129,Cross County,Arkansas,5,37,0,0,0,0,0,0,0,0,0,0,0,0,0,0,0,0,0,0,0,0,35.291259,-90.773894,05037
130,Dallas County,Arkansas,5,39,0,0,0,0,0,0,0,0,0,0,0,0,0,0,0,0,0,1,0,0,33.967823,-92.653999,05039
131,Desha County,Arkansas,5,41,0,0,0,0,0,0,0,0,0,0,0,0,0,0,0,0,0,0,0,0,33.828748,-91.244427,05041
132,Drew County,Arkansas,5,43,0,0,0,0,0,0,0,0,0,0,0,0,0,0,0,0,0,0,0,0,33.587242,-91.722778,05043
133,Faulkner County,Arkansas,5,45,0,0,0,0,0,0,0,0,0,0,0,0,0,0,0,0,0,0,1,2,35.146356,-92.324654,05045
134,Franklin County,Arkansas,5,47,0,0,0,0,0,0,0,0,0,0,0,0,0,0,0,0,0,0,0,1,35.508573,-93.887672,05047
135,Fulton County,Arkansas,5,49,0,0,0,0,0,0,0,0,0,0,0,0,0,0,0,0,0,0,0,0,36.383443,-91.819239,05049
136,Garland County,Arkansas,5,51,0,0,0,0,0,0,0,0,0,0,0,0,0,0,0,0,0,1,0,2,34.578861,-93.146915,05051
137,Grant County,Arkansas,5,53,0,0,0,0,0,0,0,0,0,0,0,0,0,0,0,0,0,0,0,0,34.288063,-92.423984,05053
138,Greene County,Arkansas,5,55,0,0,0,0,0,0,0,0,0,0,0,0,0,0,0,0,0,0,1,0,36.119922,-90.565241,05055
139,Hempstead County,Arkansas,5,57,0,0,0,0,0,0,0,0,0,0,0,0,0,0,0,0,0,0,0,0,33.728611,-93.665809,05057
140,Hot Spring County,Arkansas,5,59,0,1,0,0,0,0,0,0,0,0,0,0,0,0,0,0,0,0,0,0,34.315177,-92.944147,05059
141,Howard County,Arkansas,5,61,0,0,0,0,0,0,0,0,0,0,0,0,0,0,0,0,0,0,0,0,34.083179,-93.990988,05061
142,Independence County,Arkansas,5,63,0,0,0,0,0,0,0,0,0,0,0,0,0,0,0,0,0,1,0,0,35.737499,-91.559942,05063
143,Izard County,Arkansas,5,65,0,0,0,0,0,0,0,0,0,0,0,0,0,0,0,0,0,0,0,0,36.094879,-91.913625,05065
144,Jackson County,Arkansas,5,67,0,0,0,0,0,0,0,0,0,0,0,0,0,0,0,0,0,0,0,0,35.596605,-91.223178,05067
145,Jefferson County,Arkansas,5,69,0,0,0,0,0,0,0,0,0,0,0,0,0,0,0,0,0,0,0,0,34.277696,-91.930701,05069
146,Johnson County,Arkansas,5,71,0,0,0,0,0,0,0,0,0,0,0,0,0,0,0,0,0,0,2,0,35.573359,-93.466322,05071
147,Lafayette County,Arkansas,5,73,0,0,0,0,0,0,0,0,0,0,0,0,0,0,0,0,0,0,0,0,33.24066,-93.611643,05073
148,Lawrence County,Arkansas,5,75,0,0,0,0,0,0,0,0,0,0,0,0,0,0,0,0,0,0,1,0,36.041098,-91.101153,05075
149,Lee County,Arkansas,5,77,0,0,0,0,0,0,0,0,0,0,0,0,0,0,0,0,0,0,0,0,34.77975,-90.779288,05077
150,Lincoln County,Arkansas,5,79,0,0,0,0,0,0,0,0,0,0,0,0,0,0,0,0,0,0,0,0,33.957665,-91.727624,05079
151,Little River County,Arkansas,5,81,0,0,0,0,0,0,0,0,0,0,0,0,0,0,0,0,0,0,0,0,33.699497,-94.229774,05081
152,Logan County,Arkansas,5,83,0,0,0,0,0,0,0,0,0,0,0,0,0,0,0,0,0,0,0,0,35.21855,-93.720563,05083
153,Lonoke County,Arkansas,5,85,0,0,0,0,0,0,0,0,0,0,0,0,0,0,0,0,1,0,0,0,34.755114,-91.894132,05085
154,Madison County,Arkansas,5,87,0,0,0,0,0,0,0,0,0,0,0,0,0,0,0,0,0,0,0,0,36.012545,-93.724053,05087
155,Marion County,Arkansas,5,89,0,0,0,0,0,0,0,0,0,0,0,0,0,0,0,0,0,0,0,0,36.266656,-92.678588,05089
156,Miller County,Arkansas,5,91,0,0,0,0,0,0,0,0,0,0,0,0,0,0,0,0,0,0,0,0,33.305505,-93.901509,05091
157,Mississippi County,Arkansas,5,93,0,0,0,0,0,0,0,0,0,0,0,0,0,0,0,0,0,0,0,1,35.766943,-90.052209,05093
158,Monroe County,Arkansas,5,95,0,0,0,0,0,0,0,0,0,0,0,0,0,0,0,0,0,0,0,0,34.679513,-91.203314,05095
159,Montgomery County,Arkansas,5,97,0,0,0,0,0,0,0,0,0,0,0,0,0,0,0,0,0,0,2,0,34.545652,-93.664147,05097
160,Nevada County,Arkansas,5,99,0,0,0,0,0,0,0,0,0,0,0,0,0,0,0,0,0,0,0,0,33.666699,-93.305072,05099
161,Newton County,Arkansas,5,101,0,0,0,0,0,0,0,0,0,0,0,0,0,0,0,0,0,0,0,0,35.910063,-93.215084,05101
162,Ouachita County,Arkansas,5,103,0,0,0,0,0,0,0,0,0,0,0,0,0,0,0,0,0,0,0,0,33.591158,-92.878418,05103
163,Perry County,Arkansas,5,105,0,0,0,0,0,0,0,0,0,0,0,0,0,0,0,0,0,0,0,0,34.946363,-92.926877,05105
164,Phillips County,Arkansas,5,107,0,0,0,0,0,0,0,0,0,0,0,0,0,0,0,0,0,0,0,0,34.425842,-90.848386,05107
165,Pike County,Arkansas,5,109,0,0,0,0,0,0,0,0,0,0,0,0,0,0,0,0,0,0,0,0,34.158191,-93.658659,05109
166,Poinsett County,Arkansas,5,111,0,0,0,0,0,0,0,0,0,0,0,0,0,0,0,0,0,0,0,0,35.568981,-90.680595,05111
167,Polk County,Arkansas,5,113,0,0,0,0,0,0,0,0,0,0,0,0,0,0,0,0,0,0,0,0,34.490915,-94.230884,05113
168,Pope County,Arkansas,5,115,1,0,0,0,0,0,0,0,0,0,0,0,0,0,0,0,0,1,0,0,35.455297,-93.031535,05115
169,Prairie County,Arkansas,5,117,0,0,0,0,0,0,0,0,0,0,0,0,0,0,0,0,1,0,0,0,34.828225,-91.5572,05117
170,Pulaski County,Arkansas,5,119,0,0,0,0,0,0,0,0,0,0,0,0,0,0,0,0,1,0,3,0,34.773988,-92.316515,05119
171,Randolph County,Arkansas,5,121,0,0,0,0,0,0,0,0,0,0,0,0,0,0,0,0,0,0,0,0,36.341299,-91.028441,05121
172,St. Francis County,Arkansas,5,123,0,0,0,0,0,0,0,0,0,0,0,0,0,0,0,0,0,0,0,0,35.014438,-90.742199,05123
173,Saline County,Arkansas,5,125,0,1,0,0,0,0,0,0,0,0,0,0,0,0,0,0,0,0,0,0,34.648525,-92.674463,05125
174,Scott County,Arkansas,5,127,0,0,0,0,0,0,0,0,0,0,0,0,0,0,0,0,0,0,0,0,34.858869,-94.063641,05127
175,Searcy County,Arkansas,5,129,0,0,0,0,0,0,0,0,0,0,0,0,0,0,0,0,0,0,0,0,35.90966,-92.699351,05129
176,Sebastian County,Arkansas,5,131,0,0,0,0,0,0,0,0,0,0,0,0,0,0,0,0,0,0,0,0,35.196981,-94.274989,05131
177,Sevier County,Arkansas,5,133,0,0,0,0,0,0,0,0,0,0,0,0,0,0,0,0,0,0,0,0,33.994608,-94.24329,05133
178,Sharp County,Arkansas,5,135,0,0,0,0,0,0,0,0,0,0,0,0,0,0,0,0,0,0,0,1,36.173399,-91.471069,05135
179,Stone County,Arkansas,5,137,0,0,0,0,0,0,0,0,0,0,0,0,0,0,0,0,0,0,1,1,35.856989,-92.140494,05137
180,Union County,Arkansas,5,139,0,0,0,0,0,0,0,0,0,0,0,0,0,0,0,0,0,0,0,0,33.168219,-92.598145,05139
181,Van Buren County,Arkansas,5,141,0,0,0,0,0,0,0,0,0,0,0,0,0,0,0,0,0,0,0,0,35.582959,-92.515977,05141
182,Washington County,Arkansas,5,143,0,0,0,0,0,0,0,0,0,0,0,0,0,0,0,2,2,0,4,0,35.971209,-94.218417,05143
183,White County,Arkansas,5,145,0,0,0,0,0,0,0,0,0,0,0,0,0,0,0,0,0,0,0,0,35.254722,-91.753158,05145
184,Woodruff County,Arkansas,5,147,0,0,0,0,0,0,0,0,0,0,0,0,0,0,0,0,0,0,1,0,35.189071,-91.244418,05147
185,Yell County,Arkansas,5,149,0,0,0,0,0,0,0,0,0,0,0,0,0,0,0,0,0,0,0,0,34.997713,-93.408303,05149
186,Alameda County,California,6,1,3,7,2,0,5,3,3,6,3,3,2,4,0,1,8,12,13,2,17,6,37.648081,-121.913304,06001
187,Alpine County,California,6,3,0,0,0,0,0,0,0,0,0,0,0,0,0,0,0,0,0,0,0,0,38.61761,-119.798999,06003
188,Amador County,California,6,5,1,0,0,0,0,1,2,0,0,1,0,0,1,0,2,0,0,0,0,1,38.44355,-120.653856,06005
189,Butte County,California,6,7,1,3,2,2,0,1,0,2,3,2,0,1,0,2,0,3,0,0,1,0,39.665959,-121.601919,06007
190,Calaveras County,California,6,9,0,0,0,0,0,0,0,0,0,0,0,0,0,0,1,0,1,0,1,0,38.187844,-120.555115,06009
191,Colusa County,California,6,11,0,0,0,0,0,0,0,0,0,0,0,0,0,0,0,0,0,0,0,0,39.177739,-122.237563,06011
192,Contra Costa County,California,6,13,5,3,4,0,4,1,0,1,3,1,3,1,4,3,5,8,10,9,4,2,37.919479,-121.951543,06013
193,Del Norte County,California,6,15,0,1,1,0,0,0,0,0,2,0,0,0,0,0,0,0,0,0,0,0,41.749903,-123.980998,06015
194,El Dorado County,California,6,17,0,0,0,3,3,3,2,0,3,2,0,2,2,1,2,3,1,0,0,0,38.785532,-120.534398,06017
195,Fresno County,California,6,19,0,1,0,0,0,1,0,2,1,3,0,4,0,0,1,1,0,1,1,0,36.761006,-119.655019,06019
196,Glenn County,California,6,21,0,0,0,0,0,0,0,0,2,0,0,0,0,1,0,0,1,0,0,0,39.602546,-122.4017,06021
197,Humboldt County,California,6,23,4,5,5,7,11,4,6,6,4,14,8,2,4,5,8,6,2,1,3,0,40.706673,-123.925818,06023
198,Imperial County,California,6,25,0,0,0,0,0,0,0,0,0,0,0,0,0,0,0,1,0,0,0,0,33.040816,-115.355395,06025
199,Inyo County,California,6,27,1,0,0,0,0,1,0,0,0,0,0,0,0,0,0,0,0,0,0,0,36.561977,-117.403927,06027
200,Kern County,California,6,29,0,2,1,0,2,1,2,5,2,2,0,0,0,0,1,1,1,0,0,0,35.346629,-118.729506,06029
201,Kings County,California,6,31,0,0,0,0,0,0,0,0,1,1,1,0,1,0,0,1,1,0,2,1,36.072478,-119.81553,06031
202,Lake County,California,6,33,1,0,1,1,1,0,1,0,0,0,1,0,0,0,0,1,0,1,2,1,39.094802,-122.746757,06033
203,Lassen County,California,6,35,0,0,1,0,0,0,0,0,0,0,0,0,0,0,0,0,0,0,0,0,40.721089,-120.629931,06035
204,Los Angeles County,California,6,37,9,6,7,2,8,11,9,8,7,11,6,0,20,6,4,2,3,4,3,2,34.196398,-118.261862,06037
205,Madera County,California,6,39,0,0,0,0,0,0,0,0,0,0,1,0,0,0,0,1,0,0,0,1,37.210039,-119.749852,06039
206,Marin County,California,6,41,1,4,4,0,3,6,3,2,3,4,1,3,6,3,3,3,0,2,8,2,38.051817,-122.745974,06041
207,Mariposa County,California,6,43,0,1,0,1,0,0,0,0,0,0,0,1,1,2,1,0,0,0,0,0,37.570034,-119.91286,06043
208,Mendocino County,California,6,45,4,10,6,2,1,0,5,9,7,10,7,4,1,2,0,1,2,0,11,3,39.432388,-123.442881,06045
209,Merced County,California,6,47,0,1,0,0,0,0,0,0,0,0,1,0,0,0,0,0,0,0,0,0,37.194806,-120.722802,06047
210,Modoc County,California,6,49,0,0,0,0,0,0,0,0,0,0,0,0,0,0,0,0,0,0,0,0,41.592919,-120.71837,06049
211,Mono County,California,6,51,0,0,3,1,0,0,0,0,0,1,0,0,1,0,0,0,0,0,0,0,37.915836,-118.875167,06051
212,Monterey County,California,6,53,1,5,1,1,0,0,0,0,0,1,1,1,1,0,2,2,0,0,3,0,36.240107,-121.315573,06053
213,Napa County,California,6,55,3,1,0,1,1,0,3,0,2,0,1,2,1,2,1,1,0,2,0,1,38.507351,-122.325995,06055
214,Nevada County,California,6,57,6,3,4,1,3,2,2,2,1,5,6,2,0,0,0,2,0,1,3,0,39.295191,-120.773446,06057
215,Orange County,California,6,59,0,3,2,0,1,2,1,1,1,7,6,0,0,0,0,0,0,0,0,0,33.675687,-117.777207,06059
216,Placer County,California,6,61,4,3,0,2,2,3,0,1,4,0,1,2,1,0,0,2,3,0,0,0,39.062032,-120.722718,06061
217,Plumas County,California,6,63,1,0,0,0,0,0,0,0,0,0,0,0,0,1,0,0,0,0,0,0,39.99517,-120.829516,06063
218,Riverside County,California,6,65,2,1,2,1,4,0,0,1,5,1,5,1,2,3,2,4,4,5,3,4,33.729828,-116.002239,06065
219,Sacramento County,California,6,67,4,2,4,2,6,3,2,0,0,1,1,0,0,0,0,1,1,3,2,0,38.450011,-121.340441,06067
220,San Benito County,California,6,69,1,1,0,0,0,0,0,0,1,0,0,0,0,0,1,0,0,0,0,0,36.610702,-121.085296,06069
221,San Bernardino County,California,6,71,0,0,1,0,0,0,0,1,2,0,2,0,1,0,1,1,0,1,5,1,34.85722,-116.181197,06071
222,San Diego County,California,6,73,3,7,2,4,8,9,5,3,10,10,7,6,6,7,10,7,5,7,1,3,33.023604,-116.776117,06073
223,San Francisco County,California,6,75,3,3,3,1,8,6,3,5,1,10,1,1,9,0,0,0,18,16,14,10,37.727239,-123.032229,06075
224,San Joaquin County,California,6,77,0,0,0,0,0,0,0,0,2,1,0,1,0,1,0,1,0,1,2,0,37.935034,-121.272237,06077
225,San Luis Obispo County,California,6,79,0,0,0,0,1,0,0,1,0,0,1,0,3,3,4,2,0,2,1,3,35.385227,-120.44754,06079
226,San Mateo County,California,6,81,4,3,5,1,4,2,0,2,11,2,0,1,8,5,5,8,2,0,3,1,37.414664,-122.371542,06081
227,Santa Barbara County,California,6,83,1,2,3,2,0,0,2,2,9,1,5,0,7,1,3,6,3,5,3,1,34.537378,-120.038485,06083
228,Santa Clara County,California,6,85,2,6,4,0,2,9,2,0,2,4,10,4,12,5,10,16,23,7,6,4,37.220777,-121.690622,06085
229,Santa Cruz County,California,6,87,10,1,7,3,0,6,5,2,5,7,8,6,7,6,7,4,19,9,14,2,37.012488,-122.007205,06087
230,Shasta County,California,6,89,2,1,0,2,2,0,0,0,0,5,1,1,0,0,0,1,1,0,0,1,40.760522,-122.04355,06089
231,Sierra County,California,6,91,0,0,0,0,0,0,1,0,0,0,0,1,0,0,0,0,0,1,0,0,39.576925,-120.521993,06091
232,Siskiyou County,California,6,93,1,1,0,0,0,0,0,0,1,0,0,0,1,0,1,1,1,1,1,0,41.587986,-122.533287,06093
233,Solano County,California,6,95,1,0,0,0,0,0,0,0,0,1,0,0,0,1,0,4,2,2,1,1,38.267226,-121.939594,06095
234,Sonoma County,California,6,97,6,4,9,2,9,8,9,9,10,9,3,12,7,10,12,14,16,11,10,0,38.532574,-122.945194,06097
235,Stanislaus County,California,6,99,2,0,0,0,1,0,0,1,1,1,0,1,0,0,0,1,3,6,1,1,37.562384,-121.002656,06099
236,Sutter County,California,6,101,1,0,0,0,0,0,0,0,0,0,0,0,0,0,0,0,0,0,0,0,39.035257,-121.702758,06101
237,Tehama County,California,6,103,0,1,0,0,0,0,0,0,1,0,0,0,0,0,0,2,0,0,0,0,40.126156,-122.232276,06103
238,Trinity County,California,6,105,1,1,1,3,3,0,1,0,0,1,1,0,1,1,0,0,0,0,0,0,40.647724,-123.114404,06105
239,Tulare County,California,6,107,2,0,0,0,0,0,1,0,4,2,0,1,1,0,1,1,2,0,8,0,36.230453,-118.780542,06107
240,Tuolumne County,California,6,109,2,1,0,0,1,1,0,0,0,0,0,0,0,0,1,2,0,0,2,0,38.021451,-119.964708,06109
241,Ventura County,California,6,111,2,1,1,2,1,0,4,2,3,4,0,2,2,0,0,6,4,3,4,0,34.358742,-119.133143,06111
242,Yolo County,California,6,113,0,2,0,1,0,1,1,0,0,0,0,1,1,1,1,1,3,1,3,0,38.679268,-121.903178,06113
243,Yuba County,California,6,115,0,0,0,0,0,0,0,0,0,1,1,2,0,0,0,0,0,0,1,1,39.270026,-121.34428,06115
244,Adams County,Colorado,8,1,0,0,0,0,0,0,0,0,0,0,0,0,0,0,0,0,0,1,1,0,39.874325,-104.331872,08001
245,Alamosa County,Colorado,8,3,0,0,0,0,0,0,0,0,0,0,0,0,0,0,0,0,0,0,0,0,37.568442,-105.788041,08003
246,Arapahoe County,Colorado,8,5,0,0,0,0,0,0,0,0,0,1,0,0,0,0,0,0,0,1,1,0,39.644632,-104.331733,08005
247,Archuleta County,Colorado,8,7,0,0,0,0,0,0,0,0,0,0,0,0,0,0,0,0,0,0,0,0,37.202395,-107.050863,08007
248,Baca County,Colorado,8,9,0,0,0,0,0,0,0,0,0,0,0,0,0,0,0,0,0,0,0,0,37.303144,-102.535457,08009
249,Bent County,Colorado,8,11,0,0,0,0,0,0,0,0,0,0,0,0,0,0,0,0,0,0,0,0,37.931891,-103.077584,08011
250,Boulder County,Colorado,8,13,0,0,0,0,0,0,0,0,0,0,0,0,0,0,0,0,0,0,1,0,40.094826,-105.398382,08013
251,Broomfield County,Colorado,8,14,0,0,0,0,0,0,0,0,0,0,0,0,0,0,0,0,0,0,0,0,39.953383,-105.052125,08014
252,Chaffee County,Colorado,8,15,0,0,0,0,0,0,0,0,0,0,0,0,0,0,0,0,0,0,0,0,38.738246,-106.316972,08015
253,Cheyenne County,Colorado,8,17,0,0,0,0,0,0,0,0,0,0,0,0,0,0,0,0,0,0,0,0,38.835387,-102.604585,08017
254,Clear Creek County,Colorado,8,19,0,0,0,0,0,0,0,0,0,0,0,0,0,0,0,0,0,0,0,0,39.689403,-105.670791,08019
255,Conejos County,Colorado,8,21,0,0,0,0,0,0,0,0,0,0,0,0,0,0,0,0,0,0,0,0,37.213407,-106.176447,08021
256,Costilla County,Colorado,8,23,0,0,0,0,0,0,0,0,0,0,0,0,0,0,0,0,0,0,0,0,37.277547,-105.42894,08023
257,Crowley County,Colorado,8,25,0,0,0,0,0,0,0,0,0,0,0,0,0,0,0,0,0,0,0,0,38.321956,-103.787562,08025
258,Custer County,Colorado,8,27,0,0,0,0,0,0,0,0,0,0,0,0,0,0,0,0,0,0,0,0,38.101994,-105.373515,08027
259,Delta County,Colorado,8,29,0,0,0,0,0,0,0,0,0,0,0,0,0,0,0,0,0,0,0,0,38.861756,-107.864757,08029
260,Denver County,Colorado,8,31,0,0,0,0,0,0,0,2,0,0,0,0,0,0,0,0,0,0,2,0,39.761849,-104.880625,08031
261,Dolores County,Colorado,8,33,0,0,0,0,0,0,0,0,0,0,0,0,0,0,0,0,0,0,0,0,37.747602,-108.530383,08033
262,Douglas County,Colorado,8,35,0,0,0,0,0,0,0,0,0,0,0,0,0,0,0,0,1,0,0,0,39.326435,-104.926199,08035
263,Eagle County,Colorado,8,37,0,0,0,0,0,0,0,0,0,0,0,0,0,0,0,0,0,0,1,0,39.630638,-106.692944,08037
264,Elbert County,Colorado,8,39,0,0,0,0,0,0,0,0,0,0,0,0,0,0,0,0,0,0,0,0,39.310817,-104.117928,08039
265,El Paso County,Colorado,8,41,0,0,0,0,0,0,0,0,1,2,0,0,0,0,0,0,0,0,1,0,38.827383,-104.527472,08041
266,Fremont County,Colorado,8,43,0,0,0,0,0,0,0,0,0,0,0,0,0,0,0,0,0,0,0,0,38.455658,-105.421438,08043
267,Garfield County,Colorado,8,45,0,0,0,0,0,0,0,0,0,0,0,0,0,0,0,0,0,0,0,0,39.599352,-107.90978,08045
268,Gilpin County,Colorado,8,47,0,0,0,0,0,0,0,0,0,0,0,0,0,0,0,0,0,0,0,0,39.861082,-105.528947,08047
269,Grand County,Colorado,8,49,0,0,0,0,0,0,0,0,0,0,0,0,0,0,0,0,0,0,0,0,40.123289,-106.095876,08049
270,Gunnison County,Colorado,8,51,0,0,0,0,0,0,0,0,0,0,0,0,0,0,0,0,0,0,0,0,38.669679,-107.078108,08051
271,Hinsdale County,Colorado,8,53,0,0,0,0,0,0,0,0,0,0,0,0,0,0,0,0,0,0,0,0,37.811625,-107.383405,08053
272,Huerfano County,Colorado,8,55,0,0,0,0,0,0,0,0,0,0,0,0,0,0,0,0,0,0,0,0,37.687815,-104.959928,08055
273,Jackson County,Colorado,8,57,0,0,0,0,0,0,0,0,0,0,0,0,0,0,0,0,0,0,0,0,40.663432,-106.329248,08057
274,Jefferson County,Colorado,8,59,0,0,0,0,0,0,0,0,0,0,0,0,0,0,0,0,1,1,1,0,39.58646,-105.245601,08059
275,Kiowa County,Colorado,8,61,0,0,0,0,0,0,0,0,0,0,0,0,0,0,0,0,0,0,0,0,38.388466,-102.75621,08061
276,Kit Carson County,Colorado,8,63,0,0,0,0,0,0,0,0,0,0,0,0,0,0,0,0,0,0,0,0,39.30534,-102.603023,08063
277,Lake County,Colorado,8,65,0,0,0,0,0,0,0,0,0,0,0,0,0,0,0,0,0,0,0,0,39.204316,-106.349696,08065
278,La Plata County,Colorado,8,67,0,0,0,0,0,0,0,1,0,0,0,0,0,0,0,0,0,0,0,0,37.287367,-107.839718,08067
279,Larimer County,Colorado,8,69,0,0,0,0,0,0,0,0,0,0,0,0,0,0,0,0,0,0,0,0,40.663091,-105.482131,08069
280,Las Animas County,Colorado,8,71,0,0,0,0,0,0,0,0,0,0,0,0,0,0,0,0,1,0,0,0,37.318831,-104.04411,08071
281,Lincoln County,Colorado,8,73,0,0,0,0,0,0,0,0,0,0,0,0,0,0,0,0,0,0,0,0,38.99374,-103.507555,08073
282,Logan County,Colorado,8,75,0,0,0,0,0,0,0,0,0,0,0,0,0,0,0,0,0,0,0,0,40.728091,-103.090464,08075
283,Mesa County,Colorado,8,77,0,0,0,0,0,0,0,0,0,0,0,0,0,0,0,0,0,0,0,0,39.019492,-108.461837,08077
284,Mineral County,Colorado,8,79,0,0,0,0,0,0,0,0,0,0,0,0,0,0,0,0,0,0,0,0,37.651478,-106.9323,08079
285,Moffat County,Colorado,8,81,0,0,0,0,0,0,0,0,0,0,0,0,0,0,0,0,0,0,0,0,40.573984,-108.204521,08081
286,Montezuma County,Colorado,8,83,0,0,0,0,0,0,0,0,0,0,0,0,0,0,0,0,0,0,0,0,37.338025,-108.595786,08083
287,Montrose County,Colorado,8,85,0,0,0,0,0,0,0,0,0,0,0,0,0,0,0,0,0,0,0,0,38.413427,-108.263042,08085
288,Morgan County,Colorado,8,87,0,0,0,0,0,0,0,0,0,0,0,0,0,0,0,0,0,0,0,0,40.262354,-103.807092,08087
289,Otero County,Colorado,8,89,0,0,0,0,0,0,0,0,0,0,0,0,0,0,0,0,0,0,0,0,37.88417,-103.72126,08089
290,Ouray County,Colorado,8,91,0,0,0,0,0,0,0,0,0,0,0,0,0,0,0,0,0,0,0,0,38.1506,-107.767133,08091
291,Park County,Colorado,8,93,0,0,0,0,0,0,0,0,0,0,0,0,0,0,0,0,0,0,0,0,39.118914,-105.717648,08093
292,Phillips County,Colorado,8,95,0,0,0,0,0,0,0,0,0,0,0,0,0,0,0,0,0,0,0,0,40.594712,-102.345105,08095
293,Pitkin County,Colorado,8,97,0,1,0,0,0,0,0,0,0,0,0,0,0,0,0,0,0,0,0,0,39.217533,-106.915943,08097
294,Prowers County,Colorado,8,99,0,0,0,0,0,0,0,0,0,0,0,0,0,0,0,0,0,0,0,0,37.958181,-102.392161,08099
295,Pueblo County,Colorado,8,101,0,0,0,0,0,0,0,0,0,0,0,0,0,0,0,0,0,0,0,0,38.170658,-104.489893,08101
296,Rio Blanco County,Colorado,8,103,0,0,0,0,0,0,0,0,0,0,0,0,0,0,0,0,0,0,0,0,39.972606,-108.200685,08103
297,Rio Grande County,Colorado,8,105,0,0,0,0,0,0,0,0,0,0,0,0,0,0,0,0,0,0,0,0,37.485763,-106.453214,08105
298,Routt County,Colorado,8,107,0,0,0,0,0,0,0,0,0,0,0,0,0,0,0,0,0,0,0,0,40.48316,-106.985289,08107
299,Saguache County,Colorado,8,109,0,0,0,0,0,0,0,0,0,0,0,0,0,0,0,0,0,0,0,0,38.033952,-106.246675,08109
300,San Juan County,Colorado,8,111,0,0,0,0,0,0,0,0,0,0,0,0,0,0,0,0,0,0,0,0,37.781075,-107.670257,08111
301,San Miguel County,Colorado,8,113,0,0,0,0,0,0,0,0,0,0,0,0,0,0,0,0,0,0,0,0,38.009374,-108.427326,08113
302,Sedgwick County,Colorado,8,115,0,0,0,0,0,0,0,0,0,0,0,0,0,0,0,0,0,0,0,0,40.871568,-102.355358,08115
303,Summit County,Colorado,8,117,0,0,0,0,0,0,0,0,0,0,0,0,0,0,0,0,0,0,0,0,39.621023,-106.137555,08117
304,Teller County,Colorado,8,119,0,0,0,0,0,0,0,0,0,0,0,0,0,0,0,0,0,0,0,0,38.871994,-105.182552,08119
305,Washington County,Colorado,8,121,0,0,0,0,0,0,0,0,0,0,0,0,0,0,0,0,0,0,0,0,39.965413,-103.209605,08121
306,Weld County,Colorado,8,123,0,0,0,0,0,0,0,0,0,0,0,0,0,0,0,0,1,0,0,0,40.555794,-104.383649,08123
307,Yuma County,Colorado,8,125,0,0,0,0,0,0,0,0,0,0,0,0,0,0,0,0,0,0,0,0,40.000631,-102.422649,08125
308,Fairfield County,Connecticut,9,1,1146,1313,335,330,426,355,434,530,698,331,305,225,443,437,427,310,418,289,194,116,41.228103,-73.366757,09001
309,Hartford County,Connecticut,9,3,269,293,59,73,96,132,216,291,312,187,167,143,288,291,335,229,282,217,132,70,41.806053,-72.732916,09003
310,Litchfield County,Connecticut,9,5,376,677,276,283,299,357,358,172,213,88,118,67,187,168,202,127,221,130,116,52,41.791897,-73.235428,09005
311,Middlesex County,Connecticut,9,7,163,214,83,47,118,105,157,195,196,125,109,93,181,155,241,158,163,200,119,46,41.434525,-72.524227,09007
312,New Haven County,Connecticut,9,9,479,538,71,102,175,152,377,393,460,240,249,213,388,459,474,351,375,333,211,94,41.349717,-72.900204,09009
313,New London County,Connecticut,9,11,448,641,170,181,312,317,407,286,579,340,314,263,402,406,421,250,269,387,254,137,41.47863,-72.103452,09011
314,Tolland County,Connecticut,9,13,219,332,121,98,138,191,227,273,297,161,217,129,255,233,211,155,133,138,107,26,41.858076,-72.340977,09013
315,Windham County,Connecticut,9,15,375,488,236,187,189,147,178,121,275,148,128,122,184,162,197,148,122,149,93,70,41.824999,-71.990702,09015
316,Kent County,Delaware,10,1,22,33,33,148,177,114,155,119,181,127,133,110,78,76,58,74,105,75,79,37,39.097088,-75.502982,10001
317,New Castle County,Delaware,10,3,102,132,128,105,312,285,441,519,622,396,552,398,299,259,283,269,312,285,407,229,39.575915,-75.644132,10003
318,Sussex County,Delaware,10,5,28,29,51,20,107,67,92,104,160,96,154,123,103,50,58,104,146,127,130,57,38.677511,-75.335495,10005
319,District of Columbia,District of Columbia,11,1,17,25,14,16,10,62,116,74,61,42,0,0,35,40,121,103,84,79,100,120,38.904149,-77.017094,11001
320,Alachua County,Florida,12,1,0,0,0,6,0,0,1,3,1,1,2,3,0,0,4,3,1,0,0,0,29.67574,-82.357221,12001
321,Baker County,Florida,12,3,0,0,0,1,0,0,0,0,0,0,0,0,0,0,0,0,2,0,0,0,30.324442,-82.302284,12003
322,Bay County,Florida,12,5,0,1,0,0,0,0,0,0,1,0,1,0,4,2,1,2,2,0,0,1,30.237563,-85.631348,12005
323,Bradford County,Florida,12,7,0,0,0,0,0,0,0,0,0,0,0,0,0,0,0,0,0,0,0,0,29.946934,-82.166796,12007
324,Brevard County,Florida,12,9,1,1,1,2,0,0,0,3,1,3,4,2,7,4,3,8,4,9,3,3,28.298276,-80.700384,12009
325,Broward County,Florida,12,11,0,0,0,0,1,1,1,1,4,3,3,2,1,1,9,17,12,5,7,1,26.19352,-80.476658,12011
326,Calhoun County,Florida,12,13,1,0,0,0,0,0,0,0,0,0,1,0,0,0,0,0,0,0,0,1,30.388801,-85.197916,12013
327,Charlotte County,Florida,12,15,0,2,2,1,3,0,2,0,0,2,1,0,0,4,0,6,0,0,1,0,26.868826,-81.940858,12015
328,Citrus County,Florida,12,17,1,5,2,0,1,0,0,0,4,2,3,3,1,0,2,0,2,2,2,4,28.843628,-82.524796,12017
329,Clay County,Florida,12,19,0,0,0,1,0,0,0,0,0,0,0,1,2,3,0,4,0,0,0,2,29.987116,-81.858147,12019
330,Collier County,Florida,12,21,1,1,1,0,1,0,0,0,0,1,1,5,6,2,7,9,5,6,1,0,26.118713,-81.400884,12021
331,Columbia County,Florida,12,23,0,0,0,1,0,0,0,0,0,0,0,0,0,0,2,1,1,0,0,1,30.221305,-82.623127,12023
332,DeSoto County,Florida,12,27,0,0,0,0,0,0,0,1,0,0,0,0,0,0,0,1,1,0,0,0,27.190581,-81.806253,12027
333,Dixie County,Florida,12,29,0,0,0,0,0,0,0,0,0,0,0,0,0,1,0,0,0,0,0,0,29.580899,-83.195666,12029
334,Duval County,Florida,12,31,1,3,0,2,0,1,0,3,1,4,3,2,1,1,4,8,3,5,3,5,30.335245,-81.648113,12031
335,Escambia County,Florida,12,33,0,3,0,0,1,0,0,3,1,1,0,0,6,2,2,1,0,1,5,4,30.611664,-87.33904,12033
336,Flagler County,Florida,12,35,0,1,0,0,0,0,0,3,1,1,4,3,1,3,0,0,0,1,1,0,29.474894,-81.286362,12035
337,Franklin County,Florida,12,37,0,0,0,0,0,0,0,1,0,0,0,0,0,2,0,0,0,0,0,0,29.810176,-84.799174,12037
338,Gadsden County,Florida,12,39,0,0,0,0,0,0,0,0,0,1,0,0,0,0,0,0,1,1,0,0,30.57917,-84.612783,12039
339,Gilchrist County,Florida,12,41,0,1,0,0,0,0,0,0,0,1,0,0,0,0,0,0,0,0,0,0,29.723456,-82.795801,12041
340,Glades County,Florida,12,43,0,0,0,0,0,0,0,0,0,0,0,0,0,0,0,1,0,0,0,0,26.95481,-81.19082,12043
341,Gulf County,Florida,12,45,0,0,0,0,0,0,0,0,0,0,0,0,0,0,0,0,1,0,0,0,29.907257,-85.256537,12045
342,Hamilton County,Florida,12,47,0,0,0,0,0,0,0,0,0,0,0,0,0,0,0,0,0,0,0,0,30.491102,-82.951049,12047
343,Hardee County,Florida,12,49,1,0,0,0,0,0,1,0,0,0,0,0,0,1,0,1,0,0,0,1,27.492846,-81.82158,12049
344,Hendry County,Florida,12,51,0,0,0,0,0,0,0,0,0,0,0,0,0,0,0,0,0,0,0,0,26.53934,-81.151584,12051
345,Hernando County,Florida,12,53,0,0,0,0,0,0,2,2,1,1,0,0,0,0,2,1,2,0,3,0,28.567911,-82.464835,12053
346,Highlands County,Florida,12,55,0,0,0,0,2,0,0,0,0,2,0,0,0,1,0,0,1,0,3,0,27.342627,-81.340921,12055
347,Hillsborough County,Florida,12,57,3,2,3,1,7,2,1,2,11,4,7,9,11,11,12,7,12,7,5,2,27.90659,-82.349568,12057
348,Holmes County,Florida,12,59,0,0,0,0,0,0,0,0,0,0,0,1,0,0,0,0,0,0,0,0,30.866222,-85.812959,12059
349,Indian River County,Florida,12,61,1,2,1,4,0,1,0,3,3,1,0,2,3,6,3,7,3,2,16,7,27.700638,-80.574803,12061
350,Jackson County,Florida,12,63,0,0,0,0,0,0,0,0,0,0,0,0,0,0,0,0,0,0,0,0,30.787812,-85.210374,12063
351,Jefferson County,Florida,12,65,0,0,0,0,0,0,0,0,0,0,0,1,0,1,0,0,0,0,0,0,30.424558,-83.890859,12065
352,Lafayette County,Florida,12,67,0,0,0,0,0,0,0,0,0,0,0,0,0,0,0,0,0,0,0,0,29.990066,-83.17851,12067
353,Lake County,Florida,12,69,1,1,2,1,0,0,0,0,0,1,1,3,0,3,6,2,3,6,3,3,28.764113,-81.712282,12069
354,Lee County,Florida,12,71,1,1,1,2,2,3,3,3,11,8,9,8,13,7,17,20,9,11,16,4,26.552134,-81.89225,12071
355,Leon County,Florida,12,73,0,3,0,0,0,0,0,0,0,0,3,1,2,0,2,1,3,1,1,1,30.45931,-84.2778,12073
356,Levy County,Florida,12,75,0,0,0,0,0,0,0,0,0,1,0,0,2,0,0,0,0,0,0,0,29.284409,-82.783483,12075
357,Liberty County,Florida,12,77,0,0,0,0,0,0,0,0,0,0,0,0,0,0,0,0,0,0,0,0,30.259849,-84.868581,12077
358,Madison County,Florida,12,79,0,0,0,0,0,0,0,0,0,0,0,0,0,0,0,0,0,0,0,0,30.447228,-83.470437,12079
359,Manatee County,Florida,12,81,0,3,0,0,3,0,2,3,4,0,4,2,6,1,5,7,12,4,2,0,27.481386,-82.365784,12081
360,Marion County,Florida,12,83,0,1,1,0,2,0,1,5,2,5,7,4,3,3,8,11,11,7,5,11,29.202805,-82.0431,12083
361,Martin County,Florida,12,85,0,0,0,2,2,2,4,2,4,4,2,1,1,6,5,6,9,3,4,8,27.079954,-80.398211,12085
362,Miami-Dade County,Florida,12,86,6,3,6,5,1,0,0,7,8,6,5,13,8,16,10,7,21,8,6,3,25.610494,-80.499045,12086
363,Monroe County,Florida,12,87,1,2,0,0,1,0,0,1,0,1,0,0,2,1,0,4,2,1,0,1,25.601043,-81.206777,12087
364,Nassau County,Florida,12,89,0,3,3,0,1,0,0,0,1,0,1,0,1,1,1,2,1,3,1,0,30.605926,-81.764929,12089
365,Okaloosa County,Florida,12,91,1,0,0,1,1,1,0,0,1,1,0,1,1,1,0,4,7,6,3,1,30.665858,-86.594194,12091
366,Okeechobee County,Florida,12,93,0,0,0,0,0,0,0,0,0,0,0,0,0,0,0,0,0,2,0,1,27.385592,-80.887388,12093
367,Orange County,Florida,12,95,3,5,1,3,0,2,2,3,6,4,3,3,4,2,7,5,8,5,3,2,28.514435,-81.323295,12095
368,Osceola County,Florida,12,97,0,1,0,0,1,3,0,0,0,1,0,1,3,0,2,3,6,6,4,4,28.059027,-81.139312,12097
369,Palm Beach County,Florida,12,99,6,7,5,3,5,5,4,8,8,1,16,4,6,14,10,0,15,15,18,16,26.645763,-80.448673,12099
370,Pasco County,Florida,12,101,0,8,0,2,0,0,0,0,5,4,4,3,2,6,6,7,4,5,4,4,28.302024,-82.455707,12101
371,Pinellas County,Florida,12,103,5,10,6,4,4,3,4,8,6,4,9,6,7,5,4,16,17,12,19,11,27.903122,-82.739518,12103
372,Polk County,Florida,12,105,0,1,1,0,0,0,0,4,4,1,3,3,1,6,8,11,6,4,1,0,27.953115,-81.692783,12105
373,Putnam County,Florida,12,107,1,0,0,1,1,0,0,0,0,0,0,4,1,0,0,0,0,0,0,0,29.606006,-81.740894,12107
374,St. Johns County,Florida,12,109,1,1,0,0,0,0,1,5,2,1,3,4,4,6,5,4,2,9,4,4,29.890593,-81.383914,12109
375,St. Lucie County,Florida,12,111,0,0,0,0,0,2,0,0,2,2,1,7,4,3,1,2,4,3,2,1,27.380775,-80.443364,12111
376,Santa Rosa County,Florida,12,113,0,0,0,0,0,0,0,0,2,2,1,0,2,2,1,2,1,2,0,0,30.703633,-87.014255,12113
377,Sarasota County,Florida,12,115,4,3,6,3,5,3,0,11,8,3,1,6,11,8,7,10,5,7,6,10,27.184386,-82.365835,12115
378,Seminole County,Florida,12,117,0,0,0,0,0,4,0,0,3,1,0,3,4,5,2,2,4,3,4,3,28.690079,-81.13198,12117
379,Sumter County,Florida,12,119,0,0,0,0,0,0,0,0,0,1,5,1,3,3,2,4,2,2,3,1,28.714294,-82.074715,12119
380,Suwannee County,Florida,12,121,0,0,0,0,0,0,0,0,0,0,0,0,0,0,0,1,0,1,0,0,30.189244,-82.992754,12121
381,Taylor County,Florida,12,123,0,0,0,0,0,0,0,0,0,0,0,0,0,0,0,0,0,0,0,0,30.016943,-83.616417,12123
382,Union County,Florida,12,125,0,0,0,0,0,0,0,0,0,0,0,0,0,0,0,0,0,0,0,0,30.05428,-82.366918,12125
383,Volusia County,Florida,12,127,3,4,0,0,2,1,0,3,2,2,7,6,4,11,5,7,4,4,2,0,29.057617,-81.161813,12127
384,Wakulla County,Florida,12,129,0,0,0,0,0,0,0,0,1,0,0,0,0,0,0,0,0,0,1,0,30.140378,-84.375136,12129
385,Walton County,Florida,12,131,0,0,1,0,0,0,1,0,0,1,0,0,0,0,1,0,1,0,0,0,30.631211,-86.176614,12131
386,Washington County,Florida,12,133,0,0,0,0,0,0,0,0,1,1,0,0,0,0,0,1,0,0,0,0,30.602217,-85.662797,12133
387,Appling County,Georgia,13,1,0,0,0,0,0,0,0,1,0,0,0,0,0,0,0,0,0,0,0,0,31.739712,-82.290103,13001
388,Atkinson County,Georgia,13,3,0,0,0,0,0,0,0,0,0,0,0,0,0,0,0,0,0,0,0,0,31.300562,-82.883614,13003
389,Bacon County,Georgia,13,5,0,0,0,0,0,0,0,0,0,0,0,0,0,0,0,0,0,0,0,0,31.563327,-82.387859,13005
390,Baker County,Georgia,13,7,0,0,0,0,0,0,0,0,0,0,0,0,0,0,0,0,0,0,0,0,31.319622,-84.454857,13007
391,Baldwin County,Georgia,13,9,0,0,0,0,0,0,0,1,0,0,0,0,0,0,0,0,0,0,0,0,33.059532,-83.255362,13009
392,Banks County,Georgia,13,11,0,0,0,0,0,0,0,0,0,0,0,0,0,0,0,0,0,0,0,0,34.351922,-83.498441,13011
393,Barrow County,Georgia,13,13,0,0,0,0,0,0,0,0,0,0,0,1,0,0,0,0,0,0,0,1,33.992009,-83.712303,13013
394,Bartow County,Georgia,13,15,0,0,0,0,0,0,0,0,1,0,0,0,0,0,0,0,0,0,0,0,34.240918,-84.838188,13015
395,Ben Hill County,Georgia,13,17,0,0,0,0,0,0,0,0,0,0,0,1,0,0,0,0,0,0,0,0,31.740776,-83.14719,13017
396,Berrien County,Georgia,13,19,0,0,0,0,0,0,0,0,0,0,0,0,0,0,0,0,0,0,0,0,31.274308,-83.231906,13019
397,Bibb County,Georgia,13,21,0,0,0,0,0,0,0,0,0,0,1,1,0,0,0,0,1,0,0,2,32.808844,-83.694193,13021
398,Bleckley County,Georgia,13,23,0,0,0,0,0,0,0,0,0,0,0,0,0,0,0,0,0,0,0,0,32.435403,-83.331717,13023
399,Brantley County,Georgia,13,25,0,0,0,0,0,0,0,0,0,0,0,0,0,0,0,0,0,0,0,0,31.197334,-81.982978,13025
400,Brooks County,Georgia,13,27,0,0,0,0,0,0,0,0,0,0,0,0,0,0,0,0,0,0,0,0,30.833696,-83.588971,13027
401,Bryan County,Georgia,13,29,0,0,0,0,0,0,0,0,0,0,0,1,0,0,0,0,0,0,0,0,32.017969,-81.438543,13029
402,Bulloch County,Georgia,13,31,0,0,0,0,0,0,0,0,1,0,0,0,0,0,0,0,0,0,0,0,32.393408,-81.74381,13031
403,Burke County,Georgia,13,33,0,0,0,0,0,0,0,0,0,0,0,0,0,0,0,0,0,0,0,0,33.063737,-82.00389,13033
404,Butts County,Georgia,13,35,0,0,0,0,0,0,0,2,0,0,0,0,0,0,0,0,0,0,0,0,33.290355,-83.958221,13035
405,Calhoun County,Georgia,13,37,0,0,0,0,0,0,0,0,0,0,0,0,0,0,0,0,0,0,0,0,31.521279,-84.62629,13037
406,Camden County,Georgia,13,39,0,0,0,0,0,0,0,1,0,0,0,0,0,0,0,0,0,0,1,1,30.916358,-81.636516,13039
407,Candler County,Georgia,13,43,0,0,0,0,0,0,0,0,0,0,0,0,0,0,0,0,0,0,0,0,32.403986,-82.071446,13043
408,Carroll County,Georgia,13,45,0,0,0,0,0,0,0,1,0,0,0,1,0,0,0,0,0,0,0,0,33.582237,-85.080527,13045
409,Catoosa County,Georgia,13,47,0,0,0,0,0,0,0,0,0,0,0,0,0,0,0,2,0,0,0,0,34.899393,-85.137353,13047
410,Charlton County,Georgia,13,49,0,0,0,0,0,0,0,0,0,0,0,0,0,0,0,0,0,0,0,0,30.779904,-82.139644,13049
411,Chatham County,Georgia,13,51,0,0,0,1,0,0,0,3,1,0,0,0,0,0,0,0,1,1,0,0,31.974756,-81.091768,13051
412,Chattahoochee County,Georgia,13,53,0,0,0,0,0,0,0,0,0,0,0,0,0,0,0,0,0,0,0,0,32.347445,-84.788021,13053
413,Chattooga County,Georgia,13,55,0,0,0,0,0,0,0,0,0,0,0,0,0,0,0,0,0,0,0,0,34.474179,-85.345289,13055
414,Cherokee County,Georgia,13,57,0,0,1,0,1,0,0,0,0,0,0,0,0,0,0,0,1,1,1,1,34.244317,-84.475057,13057
415,Clarke County,Georgia,13,59,0,0,0,0,0,0,0,0,1,0,0,0,0,0,0,0,0,0,0,0,33.952234,-83.36713,13059
416,Clay County,Georgia,13,61,0,0,0,0,0,0,0,0,0,0,0,0,0,0,0,0,0,0,0,0,31.619831,-84.992583,13061
417,Clayton County,Georgia,13,63,0,0,1,0,0,0,0,0,0,0,0,1,0,0,0,0,0,0,0,0,33.552242,-84.412977,13063
418,Clinch County,Georgia,13,65,0,0,0,0,0,0,0,0,0,0,0,0,0,0,0,0,0,0,0,0,30.917653,-82.702614,13065
419,Cobb County,Georgia,13,67,0,1,1,2,2,0,2,2,1,1,5,2,0,0,0,0,0,4,2,2,33.93994,-84.574166,13067
420,Coffee County,Georgia,13,69,0,0,0,0,0,0,0,0,0,0,0,0,0,0,0,0,0,0,0,0,31.549245,-82.844938,13069
421,Colquitt County,Georgia,13,71,0,0,0,0,0,0,0,0,0,0,0,0,0,0,0,0,0,0,0,0,31.189758,-83.769741,13071
422,Columbia County,Georgia,13,73,0,0,0,0,0,0,0,0,0,0,0,0,0,0,1,0,1,0,0,1,33.550556,-82.251342,13073
423,Cook County,Georgia,13,75,0,0,0,0,0,0,0,0,0,0,0,0,0,0,0,0,0,0,0,0,31.152935,-83.429552,13075
424,Coweta County,Georgia,13,77,0,0,1,0,0,0,0,2,1,0,0,0,0,0,0,0,0,0,0,0,33.352897,-84.762138,13077
425,Crawford County,Georgia,13,79,0,0,0,0,0,0,1,0,0,0,0,0,0,0,0,0,0,0,0,0,32.709446,-83.979182,13079
426,Crisp County,Georgia,13,81,0,0,0,0,0,0,0,0,0,0,0,0,0,0,0,0,0,0,0,0,31.914753,-83.753338,13081
427,Dade County,Georgia,13,83,0,0,0,1,0,0,0,0,0,0,0,0,0,0,0,0,0,0,0,0,34.852424,-85.506201,13083
428,Dawson County,Georgia,13,85,0,0,1,2,0,0,0,0,0,0,0,0,0,0,0,0,0,0,0,0,34.442842,-84.173284,13085
429,Decatur County,Georgia,13,87,0,0,0,0,0,0,0,0,0,0,0,0,1,0,0,0,0,0,0,0,30.877961,-84.577744,13087
430,DeKalb County,Georgia,13,89,0,0,1,1,0,1,1,2,3,1,3,0,0,0,0,0,1,0,1,1,33.770661,-84.226343,13089
431,Dodge County,Georgia,13,91,0,0,0,0,0,0,0,0,0,0,0,0,0,0,0,0,0,0,0,0,32.160656,-83.156818,13091
432,Dooly County,Georgia,13,93,0,0,0,0,0,0,0,0,0,0,0,0,0,0,0,0,0,0,0,0,32.151995,-83.807167,13093
433,Dougherty County,Georgia,13,95,0,0,0,0,0,0,0,0,0,0,0,1,0,0,0,0,0,0,1,0,31.535068,-84.214444,13095
434,Douglas County,Georgia,13,97,0,0,0,0,0,0,0,0,0,0,0,1,0,0,0,0,0,0,0,0,33.699317,-84.765944,13097
435,Early County,Georgia,13,99,0,0,0,0,0,0,0,1,0,0,0,0,0,0,0,0,0,0,0,0,31.324191,-84.906723,13099
436,Echols County,Georgia,13,101,0,0,0,0,0,0,0,0,0,0,0,0,0,0,0,0,0,0,0,0,30.7085,-82.836132,13101
437,Effingham County,Georgia,13,103,0,0,0,0,0,0,0,0,0,0,0,0,0,1,1,0,0,0,0,0,32.361711,-81.343337,13103
438,Elbert County,Georgia,13,105,0,0,0,0,0,0,0,0,0,0,0,0,0,0,0,0,0,0,0,0,34.115017,-82.842057,13105
439,Emanuel County,Georgia,13,107,0,0,0,0,0,0,0,0,0,0,0,0,0,0,1,0,0,0,0,0,32.5911,-82.299763,13107
440,Evans County,Georgia,13,109,0,0,0,0,0,0,0,1,0,0,0,0,0,0,0,0,0,0,0,0,32.151902,-81.887618,13109
441,Fannin County,Georgia,13,111,0,0,0,0,0,0,0,0,0,0,0,0,1,0,0,0,0,0,0,0,34.863837,-84.319287,13111
442,Fayette County,Georgia,13,113,0,0,1,0,0,1,1,2,1,0,0,1,0,0,0,0,0,0,0,1,33.412717,-84.493941,13113
443,Floyd County,Georgia,13,115,0,0,0,0,0,0,0,0,0,0,0,0,0,0,0,0,1,0,0,0,34.263677,-85.21373,13115
444,Forsyth County,Georgia,13,117,0,1,0,0,0,0,2,0,1,1,1,2,0,1,0,0,0,1,1,0,34.225143,-84.127336,13117
445,Franklin County,Georgia,13,119,0,0,0,0,0,0,0,0,0,0,2,0,0,0,0,0,0,0,0,1,34.375155,-83.227291,13119
446,Fulton County,Georgia,13,121,0,0,1,0,0,2,1,1,6,1,2,1,1,0,0,0,0,0,3,1,33.790034,-84.468182,13121
447,Gilmer County,Georgia,13,123,0,0,0,0,0,0,0,0,0,0,0,1,0,0,0,0,0,0,0,0,34.690541,-84.453984,13123
448,Glascock County,Georgia,13,125,0,0,0,0,0,0,0,0,0,0,0,0,0,0,0,0,0,0,0,0,33.227491,-82.606913,13125
449,Glynn County,Georgia,13,127,0,0,0,0,0,0,0,0,0,0,0,1,0,0,0,0,0,0,1,0,31.212747,-81.496517,13127
450,Gordon County,Georgia,13,129,0,0,0,0,0,0,0,0,0,0,0,0,0,0,0,0,0,0,0,0,34.509667,-84.873862,13129
451,Grady County,Georgia,13,131,0,0,0,0,0,0,0,0,0,0,0,0,0,0,0,0,0,0,0,0,30.875863,-84.244772,13131
452,Greene County,Georgia,13,133,0,0,0,0,0,0,0,0,0,0,0,0,0,0,0,0,0,0,0,0,33.576836,-83.167103,13133
453,Gwinnett County,Georgia,13,135,0,0,0,0,0,0,0,3,3,1,1,2,2,1,1,0,0,2,1,1,33.959101,-84.022938,13135
454,Habersham County,Georgia,13,137,0,0,0,0,0,0,0,0,0,0,0,0,0,0,0,0,0,0,0,0,34.635108,-83.526406,13137
455,Hall County,Georgia,13,139,0,0,0,0,0,2,0,2,2,0,0,2,0,0,0,0,0,1,0,2,34.317588,-83.818497,13139
456,Hancock County,Georgia,13,141,0,0,0,0,0,0,0,0,0,0,0,0,0,0,0,0,0,0,0,1,33.26922,-83.000465,13141
457,Haralson County,Georgia,13,143,0,0,0,0,0,0,0,0,0,0,0,0,0,0,0,0,0,0,0,0,33.795165,-85.220062,13143
458,Harris County,Georgia,13,145,0,0,0,0,0,0,0,0,1,0,0,1,0,0,0,0,1,0,0,0,32.731549,-84.912432,13145
459,Hart County,Georgia,13,147,0,0,0,3,0,0,0,0,0,0,0,0,0,0,0,0,0,0,0,0,34.348733,-82.96329,13147
460,Heard County,Georgia,13,149,0,0,0,0,0,0,0,1,0,0,1,0,0,0,0,0,0,0,0,0,33.290968,-85.139594,13149
461,Henry County,Georgia,13,151,0,0,1,0,0,0,0,2,6,2,0,1,1,0,0,0,0,0,0,1,33.452881,-84.15444,13151
462,Houston County,Georgia,13,153,0,0,0,0,0,0,0,1,2,0,4,1,0,0,0,0,0,0,0,7,32.458381,-83.662856,13153
463,Irwin County,Georgia,13,155,0,0,0,0,0,0,0,0,0,0,0,0,0,0,0,0,0,0,0,0,31.604306,-83.277037,13155
464,Jackson County,Georgia,13,157,0,0,0,0,0,0,0,0,0,0,0,0,0,0,0,0,0,0,0,0,34.134157,-83.565133,13157
465,Jasper County,Georgia,13,159,0,0,0,0,0,0,0,0,0,1,0,0,0,0,0,0,0,0,0,0,33.314905,-83.687892,13159
466,Jeff Davis County,Georgia,13,161,0,0,0,0,0,0,0,0,0,0,0,0,0,0,0,0,0,0,0,0,31.811615,-82.636825,13161
467,Jefferson County,Georgia,13,163,0,0,0,0,0,0,0,0,0,0,0,0,0,0,0,0,0,0,0,0,33.051874,-82.41905,13163
468,Jenkins County,Georgia,13,165,0,0,0,0,0,0,0,0,0,0,0,0,0,0,0,0,0,0,0,0,32.794563,-81.971524,13165
469,Johnson County,Georgia,13,167,0,0,0,0,0,0,0,0,0,0,0,0,0,0,0,0,0,0,0,0,32.689831,-82.661354,13167
470,Jones County,Georgia,13,169,0,0,0,0,0,0,1,0,0,0,0,1,0,0,0,0,0,0,0,0,33.020226,-83.562339,13169
471,Lamar County,Georgia,13,171,0,0,0,0,0,0,0,0,0,0,0,0,0,0,0,0,0,0,0,1,33.07446,-84.146721,13171
472,Lanier County,Georgia,13,173,0,0,0,0,0,0,0,0,0,0,0,0,0,0,0,0,0,0,0,0,31.038197,-83.063164,13173
473,Laurens County,Georgia,13,175,0,0,0,0,0,0,0,1,2,0,0,0,0,0,0,0,0,2,0,0,32.39322,-82.926317,13175
474,Lee County,Georgia,13,177,0,0,0,0,0,0,0,0,0,0,0,1,0,0,0,0,0,0,0,0,31.818419,-84.146681,13177
475,Liberty County,Georgia,13,179,0,0,0,0,0,0,0,0,0,0,0,1,0,0,0,0,0,0,0,0,31.807245,-81.457969,13179
476,Lincoln County,Georgia,13,181,0,0,0,0,0,0,0,0,0,0,0,0,0,0,0,0,0,0,0,0,33.792151,-82.448299,13181
477,Long County,Georgia,13,183,0,0,0,0,0,0,0,0,0,0,0,0,0,0,0,0,0,0,0,0,31.749563,-81.74287,13183
478,Lowndes County,Georgia,13,185,0,0,0,0,0,0,0,0,1,1,0,0,0,0,0,0,0,0,0,0,30.83368,-83.268967,13185
479,Lumpkin County,Georgia,13,187,0,0,0,1,0,0,0,0,0,0,0,0,0,0,0,0,0,0,0,0,34.568149,-83.998828,13187
480,McDuffie County,Georgia,13,189,0,0,0,0,0,0,0,0,0,0,0,0,0,0,0,0,0,0,0,0,33.482464,-82.473188,13189
481,McIntosh County,Georgia,13,191,0,0,0,0,0,0,0,0,0,0,0,1,0,0,0,0,0,0,0,0,31.482978,-81.370199,13191
482,Macon County,Georgia,13,193,0,0,0,0,0,0,0,0,0,0,0,0,0,0,0,0,0,0,0,0,32.366216,-84.052162,13193
483,Madison County,Georgia,13,195,0,0,0,0,0,0,0,0,0,0,0,1,0,0,0,0,0,0,0,0,34.128486,-83.203637,13195
484,Marion County,Georgia,13,197,0,0,0,0,0,0,0,0,0,0,0,0,0,0,0,0,0,0,0,0,32.359538,-84.529561,13197
485,Meriwether County,Georgia,13,199,0,0,0,0,1,0,0,0,0,0,1,0,0,0,0,0,0,0,0,1,33.03022,-84.663279,13199
486,Miller County,Georgia,13,201,0,0,0,0,0,0,0,0,0,0,1,0,0,0,0,0,0,0,0,0,31.162908,-84.730386,13201
487,Mitchell County,Georgia,13,205,0,0,0,0,0,0,0,0,1,0,0,0,0,0,0,0,0,0,0,0,31.22894,-84.192407,13205
488,Monroe County,Georgia,13,207,0,0,0,0,0,0,0,0,0,0,0,0,0,0,0,0,0,0,0,1,33.017435,-83.922938,13207
489,Montgomery County,Georgia,13,209,0,0,0,0,0,0,0,0,0,0,0,0,0,0,0,0,0,0,0,0,32.172108,-82.533349,13209
490,Morgan County,Georgia,13,211,0,0,0,0,0,0,0,0,0,0,0,0,0,0,0,0,0,0,0,0,33.593732,-83.492324,13211
491,Murray County,Georgia,13,213,0,0,0,0,0,0,0,0,0,0,0,0,0,0,0,0,0,0,0,0,34.797097,-84.73799,13213
492,Muscogee County,Georgia,13,215,0,0,0,0,0,0,0,0,0,1,0,0,0,0,0,0,0,1,0,0,32.510197,-84.874946,13215
493,Newton County,Georgia,13,217,0,0,0,1,0,0,0,2,0,0,2,0,0,0,0,0,1,1,2,0,33.544046,-83.855189,13217
494,Oconee County,Georgia,13,219,0,0,0,0,0,0,0,0,0,0,0,0,0,0,0,0,0,0,0,0,33.834125,-83.437728,13219
495,Oglethorpe County,Georgia,13,221,0,0,0,0,0,0,0,0,0,0,0,0,0,0,0,0,0,0,0,0,33.866806,-83.074081,13221
496,Paulding County,Georgia,13,223,0,0,0,0,0,0,0,0,0,0,0,0,0,0,1,0,0,1,0,0,33.920903,-84.866979,13223
497,Peach County,Georgia,13,225,0,0,0,0,0,0,0,0,0,0,1,0,0,0,0,0,0,0,0,0,32.571324,-83.831978,13225
498,Pickens County,Georgia,13,227,0,0,0,0,0,0,0,0,0,0,0,0,1,0,0,0,0,1,0,0,34.456621,-84.490256,13227
499,Pierce County,Georgia,13,229,0,0,0,0,0,0,0,0,0,0,0,0,0,0,0,0,0,0,0,0,31.353988,-82.210427,13229
500,Pike County,Georgia,13,231,0,0,0,0,0,0,0,1,0,0,0,0,0,0,0,0,0,0,0,0,33.090769,-84.386627,13231
501,Polk County,Georgia,13,233,0,0,0,0,0,0,0,0,0,0,0,0,0,0,0,0,0,0,0,0,33.995961,-85.186826,13233
502,Pulaski County,Georgia,13,235,0,0,0,0,0,0,0,0,0,0,0,0,0,0,0,0,0,0,0,0,32.238794,-83.481855,13235
503,Putnam County,Georgia,13,237,0,0,0,0,0,0,0,0,0,0,0,0,0,0,0,0,0,0,0,0,33.321061,-83.37179,13237
504,Quitman County,Georgia,13,239,0,0,0,0,0,0,0,0,0,0,0,0,0,0,0,0,0,0,0,0,31.861487,-85.009317,13239
505,Rabun County,Georgia,13,241,0,0,0,0,0,0,0,0,1,0,0,0,0,0,0,0,0,0,0,0,34.883026,-83.404735,13241
506,Randolph County,Georgia,13,243,0,0,0,0,0,0,0,0,0,0,0,0,0,0,0,0,0,0,0,0,31.762651,-84.752311,13243
507,Richmond County,Georgia,13,245,0,0,0,0,0,0,0,0,0,0,0,0,0,0,0,0,0,0,1,1,33.361487,-82.074998,13245
508,Rockdale County,Georgia,13,247,0,0,1,0,0,1,1,0,0,0,1,1,0,0,0,0,0,0,0,0,33.652081,-84.02637,13247
509,Schley County,Georgia,13,249,0,0,0,0,0,0,0,0,0,0,0,0,0,0,0,0,0,0,0,0,32.263441,-84.322724,13249
510,Screven County,Georgia,13,251,0,0,0,0,0,0,0,0,0,0,0,0,0,0,0,0,0,0,0,0,32.744751,-81.617585,13251
511,Seminole County,Georgia,13,253,0,0,0,0,0,0,0,0,0,0,0,0,0,0,0,0,0,0,0,0,30.933894,-84.867592,13253
512,Spalding County,Georgia,13,255,0,0,0,0,0,1,0,0,0,0,0,1,0,0,0,0,0,1,1,2,33.262389,-84.286067,13255
513,Stephens County,Georgia,13,257,0,0,0,0,1,0,0,0,0,0,0,0,0,0,0,0,0,0,0,0,34.552914,-83.290216,13257
514,Stewart County,Georgia,13,259,0,0,0,0,0,0,0,0,0,0,0,0,0,0,0,0,0,0,0,0,32.073225,-84.834912,13259
515,Sumter County,Georgia,13,261,0,0,0,0,0,0,0,0,0,0,2,0,0,0,0,0,0,1,0,0,32.042203,-84.204283,13261
516,Talbot County,Georgia,13,263,0,0,0,0,0,0,0,0,0,0,0,0,0,0,0,0,0,0,0,0,32.704603,-84.530029,13263
517,Taliaferro County,Georgia,13,265,0,0,0,0,0,0,0,0,0,0,0,0,0,0,0,0,0,0,0,0,33.559314,-82.875208,13265
518,Tattnall County,Georgia,13,267,0,0,0,0,0,0,0,0,1,0,0,0,0,0,0,0,0,0,0,1,32.043768,-82.059208,13267
519,Taylor County,Georgia,13,269,0,0,0,0,0,0,0,0,0,0,1,0,0,0,0,0,0,0,0,0,32.554667,-84.251426,13269
520,Telfair County,Georgia,13,271,0,0,0,0,0,0,0,0,0,0,0,0,0,0,0,0,0,0,0,0,31.913639,-82.931062,13271
521,Terrell County,Georgia,13,273,0,0,0,0,0,0,0,0,0,0,0,0,0,0,0,0,0,0,0,0,31.777191,-84.439446,13273
522,Thomas County,Georgia,13,275,0,0,0,0,0,0,0,0,1,0,0,0,0,0,0,0,0,0,0,0,30.864616,-83.919783,13275
523,Tift County,Georgia,13,277,0,0,0,0,0,0,0,0,0,0,0,0,0,0,0,0,0,0,0,0,31.457003,-83.525931,13277
524,Toombs County,Georgia,13,279,0,0,0,0,0,0,0,0,0,0,1,0,0,0,0,0,0,0,0,0,32.126698,-82.332071,13279
525,Towns County,Georgia,13,281,0,0,0,0,0,0,0,0,0,0,0,0,0,0,0,0,0,0,0,0,34.90265,-83.732158,13281
526,Treutlen County,Georgia,13,283,0,0,0,0,0,0,0,0,0,0,0,0,0,0,0,0,0,0,0,0,32.409586,-82.570882,13283
527,Troup County,Georgia,13,285,0,0,0,0,0,0,0,1,1,0,0,0,0,0,1,0,0,0,0,0,33.034482,-85.02836,13285
528,Turner County,Georgia,13,287,0,0,0,0,0,0,0,0,0,0,0,0,0,0,0,0,0,0,0,0,31.718232,-83.628567,13287
529,Twiggs County,Georgia,13,289,0,0,0,0,0,0,0,0,0,0,0,0,0,0,0,0,0,0,0,0,32.665847,-83.425879,13289
530,Union County,Georgia,13,291,0,0,0,0,0,0,0,0,0,0,0,0,0,0,0,0,0,0,0,0,34.83377,-83.989573,13291
531,Upson County,Georgia,13,293,0,0,0,0,0,0,0,0,0,0,0,0,1,0,1,0,0,0,0,0,32.881837,-84.292281,13293
532,Walker County,Georgia,13,295,0,0,0,0,0,0,0,1,1,0,0,0,0,0,0,1,0,1,1,0,34.735827,-85.305385,13295
533,Walton County,Georgia,13,297,0,0,0,0,0,0,0,0,0,0,1,1,0,0,0,0,0,0,0,1,33.782649,-83.734215,13297
534,Ware County,Georgia,13,299,0,0,0,0,0,0,0,0,0,0,0,0,0,0,0,0,0,0,0,0,31.050881,-82.421507,13299
535,Warren County,Georgia,13,301,0,0,0,0,0,0,0,0,0,0,0,0,0,0,0,0,0,0,0,0,33.419169,-82.688012,13301
536,Washington County,Georgia,13,303,0,0,0,0,0,0,1,0,0,0,0,0,0,0,0,0,0,0,0,0,32.971848,-82.798112,13303
537,Wayne County,Georgia,13,305,0,0,0,0,1,0,0,0,0,0,0,0,0,0,0,0,0,0,0,0,31.547845,-81.912376,13305
538,Webster County,Georgia,13,307,0,0,0,0,0,0,0,0,0,0,0,0,0,0,0,0,0,0,0,0,32.046554,-84.553218,13307
539,Wheeler County,Georgia,13,309,0,0,0,0,0,0,0,0,0,0,0,0,0,0,0,0,0,0,0,0,32.109276,-82.738701,13309
540,White County,Georgia,13,311,0,0,0,0,0,0,0,0,0,0,0,0,0,0,0,0,0,0,0,0,34.643677,-83.743713,13311
541,Whitfield County,Georgia,13,313,0,0,0,0,0,0,0,0,0,0,0,0,0,0,1,1,0,0,0,0,34.801726,-84.968541,13313
542,Wilcox County,Georgia,13,315,0,0,0,0,0,0,0,0,0,0,0,0,0,1,0,0,0,0,0,0,31.962717,-83.438262,13315
543,Wilkes County,Georgia,13,317,0,0,0,0,0,0,0,0,0,0,0,0,0,0,0,0,0,0,0,0,33.77904,-82.747922,13317
544,Wilkinson County,Georgia,13,319,0,0,0,0,0,0,0,0,0,0,0,0,0,0,0,0,0,0,0,0,32.804321,-83.175587,13319
545,Worth County,Georgia,13,321,0,0,0,0,0,0,0,0,0,0,0,0,0,0,0,0,0,0,1,0,31.551773,-83.84996,13321
551,Ada County,Idaho,16,1,0,2,0,0,0,2,0,3,7,2,1,0,3,1,2,4,3,0,6,2,43.447861,-116.244456,16001
552,Adams County,Idaho,16,3,1,0,0,0,0,0,0,0,0,0,0,0,0,0,0,0,0,0,0,0,44.884583,-116.431873,16003
553,Bannock County,Idaho,16,5,0,0,0,0,1,0,0,0,1,1,0,1,0,0,0,0,1,0,0,0,42.692939,-112.228986,16005
554,Bear Lake County,Idaho,16,7,0,0,0,0,0,0,1,0,0,0,0,0,0,0,0,0,0,0,0,0,42.285833,-111.327445,16007
555,Benewah County,Idaho,16,9,0,0,0,0,0,0,1,0,0,0,0,1,0,0,0,0,0,0,0,0,47.218451,-116.633541,16009
556,Bingham County,Idaho,16,11,0,0,0,0,0,0,0,1,0,1,0,0,0,0,0,2,0,0,0,0,43.216357,-112.399206,16011
557,Blaine County,Idaho,16,13,2,1,0,0,0,1,0,1,0,0,0,0,2,0,2,3,2,2,1,1,43.394482,-113.95529,16013
558,Boise County,Idaho,16,15,0,0,0,0,0,0,0,0,0,0,0,0,1,0,0,0,0,0,0,0,43.987275,-115.715111,16015
559,Bonner County,Idaho,16,17,0,1,1,0,0,1,1,0,1,0,0,0,0,0,0,2,0,1,0,0,48.312512,-116.59694,16017
560,Bonneville County,Idaho,16,19,0,0,0,0,0,1,0,1,4,1,1,2,2,1,0,0,3,0,1,0,43.395171,-111.621878,16019
561,Boundary County,Idaho,16,21,0,0,1,0,0,0,0,0,0,0,0,0,1,1,0,1,0,0,0,0,48.773065,-116.524619,16021
562,Butte County,Idaho,16,23,0,0,0,0,0,0,0,0,0,0,0,0,0,0,0,0,0,0,0,0,43.6851,-113.177627,16023
563,Camas County,Idaho,16,25,0,0,0,0,0,0,0,0,0,0,0,0,0,0,0,0,0,0,0,0,43.463396,-114.804427,16025
564,Canyon County,Idaho,16,27,1,0,1,2,1,1,4,0,1,1,0,0,1,0,0,0,1,4,0,0,43.623051,-116.708527,16027
565,Caribou County,Idaho,16,29,0,0,0,0,0,0,0,0,0,0,0,0,0,0,0,0,0,0,0,0,42.786273,-111.544172,16029
566,Cassia County,Idaho,16,31,0,0,0,0,0,0,0,0,0,0,0,0,0,1,0,0,0,0,0,0,42.288635,-113.605498,16031
567,Clark County,Idaho,16,33,0,0,0,0,0,0,0,0,0,0,0,0,0,0,0,0,0,0,0,0,44.286251,-112.36112,16033
568,Clearwater County,Idaho,16,35,0,0,0,0,0,0,0,0,0,0,0,0,0,0,0,0,0,0,0,0,46.67257,-115.6535,16035
569,Custer County,Idaho,16,37,0,0,0,0,0,0,0,0,0,0,0,0,0,0,0,0,0,0,0,0,44.273341,-114.252251,16037
570,Elmore County,Idaho,16,39,0,0,0,0,0,0,0,0,0,0,1,0,0,0,0,0,0,0,0,0,43.394826,-115.470751,16039
571,Franklin County,Idaho,16,41,0,0,0,0,0,0,0,0,0,0,0,0,0,0,0,0,0,0,0,0,42.173589,-111.822955,16041
572,Fremont County,Idaho,16,43,0,0,0,0,0,0,0,0,0,0,0,0,0,0,0,0,0,0,0,0,44.218091,-111.484429,16043
573,Gem County,Idaho,16,45,0,0,0,0,0,0,0,0,0,0,0,0,0,0,0,0,0,0,0,0,44.061473,-116.398784,16045
574,Gooding County,Idaho,16,47,0,0,0,0,0,0,0,0,0,0,0,0,0,0,0,0,1,0,1,0,42.973185,-114.82142,16047
575,Idaho County,Idaho,16,49,0,0,0,1,0,0,0,1,0,0,0,0,1,0,0,0,0,0,1,0,45.849237,-115.467376,16049
576,Jefferson County,Idaho,16,51,0,0,0,0,0,0,0,0,0,0,0,0,2,1,0,0,0,0,0,0,43.796965,-112.318588,16051
577,Jerome County,Idaho,16,53,0,0,0,0,0,0,0,0,0,0,0,0,0,0,0,0,0,0,0,0,42.691172,-114.263009,16053
578,Kootenai County,Idaho,16,55,0,0,0,2,0,0,2,1,1,0,1,1,2,2,0,1,3,0,1,1,47.677113,-116.694918,16055
579,Latah County,Idaho,16,57,1,0,0,0,0,0,0,0,0,3,0,0,1,1,2,2,0,0,1,0,46.81892,-116.730974,16057
580,Lemhi County,Idaho,16,59,0,0,0,0,0,0,0,0,0,0,0,0,0,0,0,0,0,0,0,0,44.928789,-113.887841,16059
581,Lewis County,Idaho,16,61,0,0,0,0,0,0,0,0,0,0,0,0,0,0,0,0,0,0,0,0,46.236328,-116.42376,16061
582,Lincoln County,Idaho,16,63,0,0,0,0,0,0,0,0,0,0,0,0,0,0,0,0,0,0,0,0,42.986181,-114.153899,16063
583,Madison County,Idaho,16,65,0,0,0,1,0,0,0,0,0,0,0,0,1,0,0,0,0,1,0,0,43.789709,-111.65655,16065
584,Minidoka County,Idaho,16,67,0,0,0,0,0,0,0,0,0,0,0,0,0,0,0,1,1,0,0,0,42.856937,-113.64001,16067
585,Nez Perce County,Idaho,16,69,0,0,0,0,0,0,0,0,1,0,0,0,0,1,0,1,0,0,1,0,46.333766,-116.760903,16069
586,Oneida County,Idaho,16,71,0,0,0,0,0,0,0,0,0,0,0,0,0,0,0,0,0,0,0,0,42.18389,-112.520465,16071
587,Owyhee County,Idaho,16,73,0,0,0,0,0,0,0,0,0,0,0,0,0,0,0,0,0,0,0,0,42.593063,-116.142655,16073
588,Payette County,Idaho,16,75,0,0,0,0,0,0,0,0,0,0,0,0,0,0,0,0,0,0,0,0,44.00274,-116.748655,16075
589,Power County,Idaho,16,77,0,0,0,0,0,0,0,1,0,0,0,0,0,0,0,0,0,0,0,0,42.694126,-112.844407,16077
590,Shoshone County,Idaho,16,79,0,0,0,0,0,0,0,0,0,0,0,0,0,0,0,0,0,0,0,0,47.347694,-115.885092,16079
591,Teton County,Idaho,16,81,0,0,0,0,0,0,0,0,0,0,0,0,1,0,0,0,0,1,0,0,43.760994,-111.211765,16081
592,Twin Falls County,Idaho,16,83,0,0,0,0,0,0,0,0,0,0,0,0,1,0,3,0,4,0,1,0,42.352309,-114.665639,16083
593,Valley County,Idaho,16,85,0,0,0,0,0,0,0,0,0,0,0,0,0,0,0,0,0,0,0,0,44.771532,-115.637875,16085
594,Washington County,Idaho,16,87,0,0,0,0,0,0,0,0,0,0,0,0,0,0,0,0,1,0,0,0,44.448213,-116.79783,16087
595,Adams County,Illinois,17,1,0,0,0,0,0,0,2,0,0,1,0,0,0,3,1,1,0,2,1,0,39.986053,-91.194961,17001
596,Alexander County,Illinois,17,3,0,0,0,0,0,0,0,0,1,0,0,0,0,0,0,0,0,0,0,0,37.183683,-89.349506,17003
597,Bond County,Illinois,17,5,0,0,0,0,0,0,0,1,0,0,0,0,0,0,0,0,0,0,1,0,38.885924,-89.436592,17005
598,Boone County,Illinois,17,7,2,1,1,0,0,0,0,0,0,0,2,0,3,1,2,1,5,1,3,4,42.318983,-88.824295,17007
599,Brown County,Illinois,17,9,0,0,0,0,0,0,0,0,0,0,0,0,0,0,0,0,1,0,0,0,39.962069,-90.75031,17009
600,Bureau County,Illinois,17,11,0,2,0,0,0,0,0,0,1,1,2,1,2,0,1,1,0,0,2,3,41.401304,-89.528377,17011
601,Calhoun County,Illinois,17,13,0,0,0,0,0,1,0,0,0,0,0,0,0,0,0,0,0,0,0,0,39.164262,-90.666295,17013
602,Carroll County,Illinois,17,15,0,0,0,1,1,0,6,3,4,2,0,3,6,3,1,6,3,3,1,0,42.059084,-89.926485,17015
603,Cass County,Illinois,17,17,0,0,0,0,0,0,0,0,0,0,0,0,0,1,1,0,1,0,1,0,39.969202,-90.245705,17017
604,Champaign County,Illinois,17,19,0,0,0,2,2,0,3,1,1,0,0,2,5,7,4,6,4,2,5,2,40.13915,-88.197201,17019
605,Christian County,Illinois,17,21,0,0,0,0,0,0,0,0,0,1,0,0,0,0,1,0,1,0,0,0,39.545524,-89.279593,17021
606,Clark County,Illinois,17,23,0,0,0,0,0,0,0,1,1,0,0,2,1,0,2,4,3,1,0,0,39.332364,-87.791687,17023
607,Clay County,Illinois,17,25,0,0,0,0,0,0,0,0,0,0,0,0,1,0,0,0,0,0,0,0,38.747312,-88.483789,17025
608,Clinton County,Illinois,17,27,0,0,0,0,0,0,0,0,0,0,0,0,0,0,0,3,1,0,0,0,38.606423,-89.423136,17027
609,Coles County,Illinois,17,29,0,0,0,0,0,0,0,1,0,0,0,2,0,0,0,0,1,4,2,1,39.51368,-88.220782,17029
610,Cook County,Illinois,17,31,7,7,16,23,42,35,30,21,29,43,63,53,78,48,73,67,77,57,96,67,41.894294,-87.645455,17031
611,Crawford County,Illinois,17,33,0,0,0,0,0,0,0,0,0,1,0,1,0,1,0,0,1,0,0,0,39.00373,-87.757172,17033
612,Cumberland County,Illinois,17,35,0,0,0,0,0,0,0,0,0,0,0,0,0,0,1,0,0,0,0,0,39.273121,-88.240619,17035
613,DeKalb County,Illinois,17,37,1,1,0,1,3,1,4,1,0,1,2,2,1,2,2,1,0,2,10,5,41.894613,-88.768991,17037
614,De Witt County,Illinois,17,39,0,0,0,0,0,0,0,0,0,0,0,1,0,1,0,0,0,1,0,0,40.181499,-88.901853,17039
615,Douglas County,Illinois,17,41,0,0,0,0,0,0,0,0,0,1,0,0,0,0,0,0,0,0,0,0,39.766078,-88.222866,17041
616,DuPage County,Illinois,17,43,2,5,6,9,12,10,16,17,18,19,32,27,39,22,30,34,36,27,39,42,41.852058,-88.086038,17043
617,Edgar County,Illinois,17,45,0,0,0,0,0,0,0,0,0,1,0,0,2,0,1,1,0,1,2,1,39.679037,-87.74711,17045
618,Edwards County,Illinois,17,47,0,0,0,0,0,0,0,0,0,0,0,0,1,0,0,0,0,0,0,0,38.417095,-88.047941,17047
619,Effingham County,Illinois,17,49,0,0,0,0,0,0,0,0,0,0,0,0,0,0,0,0,0,0,1,0,39.047694,-88.592786,17049
620,Fayette County,Illinois,17,51,0,0,0,0,0,0,0,0,0,0,0,0,0,0,0,0,0,0,1,1,39.001125,-89.017923,17051
621,Ford County,Illinois,17,53,0,0,0,0,0,0,0,0,2,0,0,0,0,0,0,0,0,0,0,0,40.594423,-88.224746,17053
622,Franklin County,Illinois,17,55,0,1,0,0,0,0,0,0,0,0,0,0,0,0,0,0,1,0,0,1,37.991848,-88.926246,17055
623,Fulton County,Illinois,17,57,0,0,0,0,1,0,1,1,0,0,1,5,4,4,6,0,0,2,3,0,40.465688,-90.206793,17057
624,Gallatin County,Illinois,17,59,0,0,0,0,0,0,0,0,0,0,0,0,0,0,0,0,0,0,0,0,37.768677,-88.227964,17059
625,Greene County,Illinois,17,61,0,0,0,0,0,0,0,0,0,1,0,0,0,1,1,0,0,0,2,0,39.355444,-90.387757,17061
626,Grundy County,Illinois,17,63,2,2,2,0,0,0,0,3,2,0,2,1,1,0,6,1,0,0,0,0,41.29241,-88.401055,17063
627,Hamilton County,Illinois,17,65,0,0,0,0,0,0,0,0,0,0,0,0,1,0,0,0,0,0,0,0,38.085226,-88.539005,17065
628,Hancock County,Illinois,17,67,0,0,0,0,0,0,0,0,0,0,0,0,0,0,0,0,1,0,1,1,40.405792,-91.167988,17067
629,Hardin County,Illinois,17,69,0,0,0,0,0,0,0,0,0,0,0,0,1,1,0,0,0,0,0,0,37.517852,-88.266148,17069
630,Henderson County,Illinois,17,71,0,0,0,0,0,0,0,0,0,0,0,2,0,2,0,0,0,0,0,0,40.815141,-90.93848,17071
631,Henry County,Illinois,17,73,0,1,1,1,0,0,0,2,0,1,0,1,0,0,0,0,0,0,2,0,41.350021,-90.130838,17073
632,Iroquois County,Illinois,17,75,0,0,0,0,1,0,0,1,0,1,0,1,0,0,0,0,1,0,0,0,40.748867,-87.833601,17075
633,Jackson County,Illinois,17,77,0,0,0,0,0,0,0,0,0,0,0,0,3,0,0,0,0,0,1,0,37.786096,-89.381212,17077
634,Jasper County,Illinois,17,79,0,0,0,0,0,0,0,0,0,0,0,0,0,0,0,0,0,0,0,0,39.004874,-88.150763,17079
635,Jefferson County,Illinois,17,81,0,0,0,1,0,0,0,0,0,0,0,0,0,0,1,0,1,1,2,0,38.30078,-88.92421,17081
636,Jersey County,Illinois,17,83,0,0,0,0,0,0,1,1,0,0,0,0,0,0,0,0,0,0,0,0,39.080192,-90.361365,17083
637,Jo Daviess County,Illinois,17,85,0,1,8,5,15,21,9,7,1,0,0,4,14,8,14,6,7,5,12,7,42.362391,-90.211471,17085
638,Johnson County,Illinois,17,87,0,0,0,0,0,0,0,0,1,0,0,0,1,0,0,0,0,0,0,0,37.460815,-88.882962,17087
639,Kane County,Illinois,17,89,0,0,1,7,5,2,6,5,12,7,9,4,18,5,7,7,9,11,15,27,41.939594,-88.42804,17089
640,Kankakee County,Illinois,17,91,0,1,0,1,0,0,1,0,0,0,0,2,2,2,2,1,0,5,0,2,41.139494,-87.861125,17091
641,Kendall County,Illinois,17,93,0,0,0,0,0,1,0,0,0,1,0,0,2,3,2,0,2,4,2,1,41.58814,-88.430626,17093
642,Knox County,Illinois,17,95,1,0,0,0,0,0,0,0,0,0,1,1,5,4,2,2,1,2,1,0,40.930941,-90.213761,17095
643,Lake County,Illinois,17,97,1,4,5,6,3,4,8,5,8,6,17,10,36,19,32,22,35,39,51,29,42.326444,-87.436118,17097
644,LaSalle County,Illinois,17,99,0,2,0,0,1,2,5,1,2,3,4,3,6,3,3,2,2,4,7,5,41.343341,-88.885931,17099
645,Lawrence County,Illinois,17,101,0,0,0,0,0,1,0,0,0,0,0,0,0,0,0,0,0,0,1,0,38.718954,-87.730221,17101
646,Lee County,Illinois,17,103,0,0,2,1,1,1,2,0,0,1,1,0,1,3,0,2,1,2,1,0,41.747442,-89.299351,17103
647,Livingston County,Illinois,17,105,0,0,0,0,1,0,0,0,0,0,0,1,0,1,0,0,0,2,2,0,40.894376,-88.552852,17105
648,Logan County,Illinois,17,107,0,0,0,0,0,0,0,0,0,0,0,0,0,0,0,0,1,1,0,1,40.12907,-89.365308,17107
649,McDonough County,Illinois,17,109,0,0,0,0,0,0,0,0,0,0,0,3,0,0,0,0,0,1,1,1,40.455789,-90.677579,17109
650,McHenry County,Illinois,17,111,0,2,5,6,7,8,6,3,6,1,18,26,36,31,20,24,30,29,34,27,42.324298,-88.452245,17111
651,McLean County,Illinois,17,113,0,0,0,1,0,0,5,1,4,2,1,1,2,2,2,2,3,4,8,2,40.494559,-88.844539,17113
652,Macon County,Illinois,17,115,0,1,0,0,0,0,0,1,0,0,2,0,0,0,0,0,0,1,0,0,39.860237,-88.961529,17115
653,Macoupin County,Illinois,17,117,0,0,0,0,1,0,0,0,0,0,0,0,0,0,2,0,0,0,1,0,39.2659,-89.926344,17117
654,Madison County,Illinois,17,119,0,0,0,0,1,0,1,0,1,0,0,1,1,0,2,1,0,2,2,0,38.827082,-89.900195,17119
655,Marion County,Illinois,17,121,0,1,0,0,0,1,1,0,1,0,1,0,2,0,0,1,0,3,0,0,38.648396,-88.920221,17121
656,Marshall County,Illinois,17,123,0,0,0,0,0,0,1,1,0,0,0,1,1,1,0,0,0,1,0,0,41.031119,-89.342371,17123
657,Mason County,Illinois,17,125,0,0,0,0,0,0,0,0,0,0,0,0,0,0,0,0,0,0,0,0,40.236993,-89.913575,17125
658,Massac County,Illinois,17,127,0,0,0,0,0,0,0,0,0,0,0,0,0,1,0,0,0,0,0,0,37.216119,-88.705658,17127
659,Menard County,Illinois,17,129,0,0,0,0,0,0,0,0,0,0,0,0,0,0,0,1,0,0,0,0,40.022569,-89.794133,17129
660,Mercer County,Illinois,17,131,0,0,1,0,0,1,0,0,0,2,1,0,0,0,0,0,0,1,1,0,41.204791,-90.741433,17131
661,Monroe County,Illinois,17,133,0,0,0,0,0,0,0,0,0,0,0,0,0,0,0,0,0,0,0,0,38.277983,-90.179078,17133
662,Montgomery County,Illinois,17,135,0,0,0,0,0,0,0,1,0,0,0,0,0,0,0,0,0,1,0,0,39.228092,-89.478007,17135
663,Morgan County,Illinois,17,137,1,0,0,0,0,1,0,0,0,0,0,0,0,0,1,0,0,0,2,1,39.716806,-90.202277,17137
664,Moultrie County,Illinois,17,139,0,0,0,0,1,0,0,0,0,0,0,0,0,0,0,0,0,2,0,0,39.636896,-88.625726,17139
665,Ogle County,Illinois,17,141,2,1,3,5,6,3,6,5,4,5,3,7,3,5,6,3,5,2,1,6,42.041884,-89.320176,17141
666,Peoria County,Illinois,17,143,0,1,1,0,3,3,2,2,3,2,5,5,4,7,6,5,4,4,8,2,40.785999,-89.767358,17143
667,Perry County,Illinois,17,145,0,0,0,1,0,0,0,0,0,0,0,0,0,2,0,0,0,0,0,0,38.084385,-89.368487,17145
668,Piatt County,Illinois,17,147,0,0,0,0,0,0,0,0,0,0,0,0,0,0,0,0,0,0,1,0,40.009056,-88.592328,17147
669,Pike County,Illinois,17,149,2,2,1,0,1,0,5,0,2,0,0,1,1,0,1,0,0,0,0,0,39.625106,-90.889034,17149
670,Pope County,Illinois,17,151,0,0,0,0,0,0,0,0,0,0,0,2,0,0,0,0,0,0,0,0,37.417169,-88.542374,17151
671,Pulaski County,Illinois,17,153,0,0,0,0,0,0,0,0,0,0,0,0,0,0,0,0,0,0,0,0,37.215615,-89.127755,17153
672,Putnam County,Illinois,17,155,0,0,0,1,0,0,0,0,0,0,1,1,2,1,0,0,0,0,2,0,41.19894,-89.298386,17155
673,Randolph County,Illinois,17,157,0,0,0,0,0,0,0,0,0,0,0,0,0,1,0,0,0,0,0,0,38.056515,-89.82121,17157
674,Richland County,Illinois,17,159,0,0,0,0,0,0,0,0,0,0,0,0,0,0,0,0,0,0,0,0,38.71155,-88.085698,17159
675,Rock Island County,Illinois,17,161,1,2,5,2,1,1,3,2,4,2,1,1,5,3,7,0,2,6,8,5,41.468404,-90.572203,17161
676,St. Clair County,Illinois,17,163,0,0,1,0,0,0,0,0,1,1,0,2,2,0,2,1,0,0,2,2,38.470198,-89.928546,17163
677,Saline County,Illinois,17,165,0,0,0,1,0,0,0,0,0,0,0,0,1,0,0,0,0,2,1,0,37.751653,-88.545031,17165
678,Sangamon County,Illinois,17,167,0,1,0,2,0,0,0,1,3,0,1,1,0,0,1,1,1,2,2,1,39.756378,-89.662311,17167
679,Schuyler County,Illinois,17,169,0,0,0,0,0,0,0,0,0,0,0,0,0,0,0,0,0,0,0,0,40.156905,-90.613464,17169
680,Scott County,Illinois,17,171,0,0,0,0,0,0,0,0,0,0,0,0,0,0,0,0,0,0,0,0,39.63698,-90.477759,17171
681,Shelby County,Illinois,17,173,0,0,0,0,2,0,0,0,0,0,0,0,0,0,0,0,0,2,0,0,39.384926,-88.798862,17173
682,Stark County,Illinois,17,175,0,0,0,0,0,0,1,1,0,1,0,0,0,0,0,0,0,0,0,0,41.096908,-89.797411,17175
683,Stephenson County,Illinois,17,177,2,1,1,0,0,0,0,2,2,1,2,0,0,1,1,1,0,5,2,2,42.349726,-89.665994,17177
684,Tazewell County,Illinois,17,179,0,0,0,0,1,0,2,1,0,5,3,2,5,3,4,2,2,3,4,4,40.508074,-89.51626,17179
685,Union County,Illinois,17,181,0,0,0,0,0,0,1,0,0,1,0,0,0,0,0,0,0,0,0,1,37.475104,-89.252875,17181
686,Vermilion County,Illinois,17,183,0,0,1,0,0,0,0,0,0,1,2,1,7,2,3,0,3,0,0,2,40.18674,-87.726772,17183
687,Wabash County,Illinois,17,185,0,0,0,0,0,0,0,0,0,0,0,0,1,0,0,0,0,1,2,0,38.445821,-87.839167,17185
688,Warren County,Illinois,17,187,0,0,0,0,0,0,1,1,2,0,0,1,1,0,1,0,0,0,2,2,40.850441,-90.620223,17187
689,Washington County,Illinois,17,189,0,0,0,0,0,0,0,0,0,0,0,0,0,0,0,0,0,0,0,1,38.353141,-89.417187,17189
690,Wayne County,Illinois,17,191,0,0,0,0,1,0,0,0,0,0,0,0,0,0,0,0,0,0,0,0,38.431948,-88.432129,17191
691,White County,Illinois,17,193,0,0,0,0,0,0,0,0,0,0,0,0,0,0,0,0,0,0,0,0,38.087372,-88.178585,17193
692,Whiteside County,Illinois,17,195,1,0,1,0,0,0,0,2,0,1,0,1,8,4,7,2,1,0,2,3,41.750571,-89.910957,17195
693,Will County,Illinois,17,197,3,2,4,7,5,11,8,7,4,6,6,8,13,14,16,16,20,11,22,9,41.448474,-87.978456,17197
694,Williamson County,Illinois,17,199,0,0,0,0,0,0,0,0,0,0,1,1,1,1,0,0,0,0,1,1,37.730353,-88.930018,17199
695,Winnebago County,Illinois,17,201,3,5,5,2,9,2,11,4,14,11,9,8,7,8,7,8,6,10,15,20,42.337396,-89.161205,17201
696,Woodford County,Illinois,17,203,1,0,0,1,0,0,1,1,2,1,1,1,0,1,2,1,0,4,3,2,40.789596,-89.210301,17203
697,Adams County,Indiana,18,1,0,0,1,0,0,0,0,0,0,1,0,0,1,1,0,1,0,1,0,1,40.745733,-84.936131,18001
698,Allen County,Indiana,18,3,1,0,2,2,2,0,2,1,3,2,3,0,2,2,2,0,2,1,2,1,41.091855,-85.07223,18003
699,Bartholomew County,Indiana,18,5,0,0,0,0,1,0,0,0,0,0,0,0,1,0,0,1,2,2,1,3,39.205843,-85.897999,18005
700,Benton County,Indiana,18,7,0,0,0,0,0,0,0,0,0,1,0,0,0,0,0,0,0,0,1,0,40.608253,-87.315479,18007
701,Blackford County,Indiana,18,9,0,0,0,0,0,0,0,0,0,0,0,0,0,0,0,0,0,0,0,0,40.472672,-85.32373,18009
702,Boone County,Indiana,18,11,1,0,1,0,0,0,0,0,1,1,0,0,0,2,0,0,1,1,1,1,40.050892,-86.469014,18011
703,Brown County,Indiana,18,13,0,0,0,0,0,0,0,0,0,0,0,0,0,1,0,0,0,1,1,0,39.192585,-86.23941,18013
704,Carroll County,Indiana,18,15,0,0,0,0,0,0,0,0,0,1,1,1,0,0,1,1,1,1,0,0,40.58498,-86.565141,18015
705,Cass County,Indiana,18,17,0,1,0,0,1,2,0,0,0,2,0,2,1,3,1,2,1,2,3,1,40.753799,-86.355169,18017
706,Clark County,Indiana,18,19,1,0,0,0,0,1,0,0,0,0,0,1,2,0,0,0,2,2,2,2,38.476217,-85.711122,18019
707,Clay County,Indiana,18,21,0,0,0,0,1,0,0,0,0,1,0,0,0,0,0,0,1,1,1,2,39.393951,-87.115837,18021
708,Clinton County,Indiana,18,23,0,0,0,0,0,0,0,0,1,0,0,0,0,0,0,1,0,0,0,0,40.305944,-86.477567,18023
709,Crawford County,Indiana,18,25,0,0,0,0,0,0,1,0,0,0,0,0,0,0,0,0,0,1,0,1,38.289433,-86.440871,18025
710,Daviess County,Indiana,18,27,1,0,0,0,0,0,1,0,0,0,0,0,0,0,0,0,0,0,0,2,38.696155,-87.076988,18027
711,Dearborn County,Indiana,18,29,0,0,0,0,0,0,0,0,0,0,0,0,0,0,0,1,0,2,3,3,39.151491,-84.97346,18029
712,Decatur County,Indiana,18,31,0,0,0,0,0,0,0,0,0,0,0,0,0,0,0,0,0,0,0,0,39.30598,-85.499831,18031
713,DeKalb County,Indiana,18,33,0,0,0,0,1,0,0,0,0,0,0,0,0,0,0,2,0,0,0,0,41.401189,-85.000185,18033
714,Delaware County,Indiana,18,35,0,0,0,0,0,1,0,0,1,0,0,1,1,1,0,0,0,0,0,1,40.227165,-85.398856,18035
715,Dubois County,Indiana,18,37,0,0,0,0,0,0,0,0,0,0,0,0,0,0,0,0,0,0,0,0,38.373344,-86.873385,18037
716,Elkhart County,Indiana,18,39,0,2,1,1,1,0,1,1,2,2,0,0,0,2,3,8,4,3,5,11,41.600693,-85.863986,18039
717,Fayette County,Indiana,18,41,0,0,0,0,0,0,0,0,0,0,0,0,0,0,1,0,1,0,0,0,39.639655,-85.185032,18041
718,Floyd County,Indiana,18,43,0,0,0,0,1,0,0,1,0,0,0,0,0,0,0,0,0,3,2,0,38.317937,-85.911474,18043
719,Fountain County,Indiana,18,45,0,0,0,1,0,0,0,0,0,2,3,0,0,0,0,0,0,0,0,0,40.121282,-87.234806,18045
720,Franklin County,Indiana,18,47,0,0,0,0,0,0,0,0,1,0,0,0,0,0,0,0,2,1,0,4,39.409762,-85.066964,18047
721,Fulton County,Indiana,18,49,0,0,0,0,0,0,0,0,0,0,1,1,1,1,0,2,3,5,4,6,41.050384,-86.265006,18049
722,Gibson County,Indiana,18,51,0,0,0,0,0,0,0,0,0,0,0,0,1,0,0,0,0,1,1,0,38.317413,-87.580566,18051
723,Grant County,Indiana,18,53,1,0,0,0,1,0,0,0,0,0,0,0,0,0,0,0,0,0,0,1,40.515758,-85.654946,18053
724,Greene County,Indiana,18,55,0,0,0,0,0,0,1,1,1,0,1,0,1,0,0,0,0,1,1,3,39.0486,-87.005245,18055
725,Hamilton County,Indiana,18,57,2,0,0,1,0,2,7,3,4,3,3,3,0,1,3,2,4,5,5,6,40.04987,-86.020586,18057
726,Hancock County,Indiana,18,59,0,0,0,0,0,0,0,0,0,2,0,0,0,1,0,0,0,1,1,1,39.822604,-85.772904,18059
727,Harrison County,Indiana,18,61,1,0,0,0,0,0,0,0,0,0,0,0,0,0,0,0,0,0,0,1,38.18644,-86.103681,18061
728,Hendricks County,Indiana,18,63,0,1,2,0,1,0,0,0,0,1,1,0,1,3,3,0,0,0,1,1,39.768749,-86.510287,18063
729,Henry County,Indiana,18,65,0,0,0,0,0,0,0,0,0,0,0,0,0,0,1,0,0,0,1,0,39.929576,-85.397338,18065
730,Howard County,Indiana,18,67,0,1,0,1,0,0,0,0,3,2,0,1,0,1,0,1,1,1,0,0,40.483537,-86.114118,18067
731,Huntington County,Indiana,18,69,0,0,0,0,0,0,0,0,0,0,0,0,0,1,0,0,0,0,0,0,40.826394,-85.478598,18069
732,Jackson County,Indiana,18,71,0,0,0,0,0,0,0,0,0,0,0,1,0,0,2,0,1,1,0,0,38.911957,-86.042516,18071
733,Jasper County,Indiana,18,73,0,0,2,0,0,0,3,0,2,0,1,3,0,3,0,1,2,2,6,4,41.017688,-87.118814,18073
734,Jay County,Indiana,18,75,0,0,1,1,0,0,0,0,0,0,0,0,0,0,0,0,0,0,0,0,40.434972,-85.00338,18075
735,Jefferson County,Indiana,18,77,0,0,0,0,0,0,0,0,0,0,0,0,0,1,0,0,2,2,1,2,38.783604,-85.44009,18077
736,Jennings County,Indiana,18,79,0,0,0,0,0,1,0,0,0,0,0,0,0,0,0,1,1,1,1,0,38.996234,-85.628111,18079
737,Johnson County,Indiana,18,81,1,0,1,1,0,0,0,0,3,1,0,0,0,0,0,0,0,2,3,2,39.495986,-86.0946,18081
738,Knox County,Indiana,18,83,0,0,0,0,0,0,0,0,0,0,0,0,1,0,0,0,0,0,0,0,38.688663,-87.420182,18083
739,Kosciusko County,Indiana,18,85,0,0,1,0,0,0,0,0,0,1,1,0,3,0,4,2,3,0,2,5,41.244293,-85.861575,18085
740,LaGrange County,Indiana,18,87,0,0,0,0,0,1,0,0,1,0,1,0,0,0,0,0,0,0,2,1,41.642468,-85.426302,18087
741,Lake County,Indiana,18,89,1,1,1,1,5,2,5,3,5,2,7,5,5,6,8,9,8,14,5,4,41.472239,-87.374337,18089
742,LaPorte County,Indiana,18,91,0,3,1,2,2,3,4,5,4,5,6,3,9,4,7,7,12,11,9,14,41.549011,-86.744729,18091
743,Lawrence County,Indiana,18,93,3,0,0,0,0,0,1,0,0,0,0,0,0,0,1,0,0,3,0,0,38.839815,-86.48782,18093
744,Madison County,Indiana,18,95,0,1,0,1,0,0,1,0,0,0,0,0,2,0,0,0,0,0,0,2,40.166203,-85.722454,18095
745,Marion County,Indiana,18,97,1,1,0,3,2,4,1,0,0,0,5,4,4,3,5,9,7,6,5,3,39.782976,-86.135794,18097
746,Marshall County,Indiana,18,99,1,0,1,0,1,0,1,1,1,0,8,1,4,7,1,10,6,8,3,5,41.325003,-86.269036,18099
747,Martin County,Indiana,18,101,0,0,0,0,0,1,0,0,0,0,0,0,0,0,0,0,0,0,0,0,38.705322,-86.801847,18101
748,Miami County,Indiana,18,103,0,1,0,0,0,0,0,0,0,0,0,0,0,0,1,1,0,1,1,1,40.772881,-86.044259,18103
749,Monroe County,Indiana,18,105,2,2,1,4,0,0,1,0,1,3,0,1,0,0,0,0,2,4,4,4,39.160751,-86.523325,18105
750,Montgomery County,Indiana,18,107,1,0,0,0,0,0,0,2,0,3,4,2,0,1,2,3,2,2,0,1,40.040296,-86.892715,18107
751,Morgan County,Indiana,18,109,1,0,0,0,0,0,0,0,1,2,0,0,0,0,2,0,0,1,2,0,39.482646,-86.447457,18109
752,Newton County,Indiana,18,111,0,0,0,0,0,0,0,1,0,0,2,0,0,0,1,0,0,0,0,0,40.962399,-87.402172,18111
753,Noble County,Indiana,18,113,0,0,0,1,0,0,0,0,0,0,0,0,0,0,0,1,0,0,0,1,41.400794,-85.41785,18113
754,Ohio County,Indiana,18,115,0,0,0,0,0,0,0,0,0,0,0,0,0,0,0,0,0,0,0,1,38.940527,-84.964299,18115
755,Orange County,Indiana,18,117,0,0,0,0,0,0,0,0,0,0,0,0,0,0,0,0,0,1,0,2,38.547381,-86.489257,18117
756,Owen County,Indiana,18,119,0,0,0,0,0,0,0,1,0,2,2,0,4,1,2,3,1,2,3,4,39.317339,-86.838845,18119
757,Parke County,Indiana,18,121,0,0,0,0,0,0,0,1,0,0,2,0,4,0,1,2,4,2,1,1,39.77425,-87.19695,18121
758,Perry County,Indiana,18,123,1,0,0,0,0,0,2,0,2,0,1,0,0,0,0,2,0,0,0,0,38.081436,-86.62654,18123
759,Pike County,Indiana,18,125,0,0,0,0,0,0,0,1,0,0,0,1,0,0,0,0,0,0,0,0,38.397898,-87.232532,18125
760,Porter County,Indiana,18,127,0,0,3,4,5,1,5,5,10,7,15,15,19,16,13,18,19,20,11,14,41.509922,-87.071308,18127
761,Posey County,Indiana,18,129,0,0,0,0,0,0,0,0,0,0,0,0,0,0,0,0,0,0,0,0,38.027614,-87.868653,18129
762,Pulaski County,Indiana,18,131,0,1,1,0,1,0,1,0,1,3,0,0,0,1,3,2,1,4,1,2,41.045272,-86.692538,18131
763,Putnam County,Indiana,18,133,0,0,0,0,0,0,0,0,0,1,0,1,0,1,0,0,4,3,1,1,39.665545,-86.853325,18133
764,Randolph County,Indiana,18,135,0,0,0,0,0,0,0,0,0,0,0,0,0,0,0,0,0,0,0,0,40.164414,-85.005004,18135
765,Ripley County,Indiana,18,137,0,0,0,0,0,0,0,1,0,0,0,0,0,0,0,0,1,2,0,4,39.10023,-85.260541,18137
766,Rush County,Indiana,18,139,0,0,0,0,1,0,0,0,0,0,0,0,0,0,0,0,0,0,0,0,39.622312,-85.466527,18139
767,St. Joseph County,Indiana,18,141,2,3,1,3,1,2,4,6,10,5,10,10,16,21,31,21,25,21,19,25,41.617699,-86.288159,18141
768,Scott County,Indiana,18,143,0,0,0,0,1,0,0,0,0,0,0,0,0,0,0,0,0,0,0,0,38.679431,-85.751898,18143
769,Shelby County,Indiana,18,145,0,0,0,0,0,0,0,0,0,0,0,0,0,0,0,0,0,0,0,0,39.524135,-85.792174,18145
770,Spencer County,Indiana,18,147,0,0,0,0,1,0,0,0,0,0,0,0,0,0,0,0,1,1,0,0,38.009789,-87.010645,18147
771,Starke County,Indiana,18,149,2,0,0,0,0,0,0,3,2,6,2,5,5,4,4,2,0,0,2,0,41.28322,-86.64757,18149
772,Steuben County,Indiana,18,151,0,0,0,0,0,1,0,0,0,0,0,0,0,0,0,0,0,0,1,0,41.643437,-85.002467,18151
773,Sullivan County,Indiana,18,153,0,1,0,0,1,0,0,0,0,0,0,0,0,0,0,0,0,0,0,1,39.089225,-87.415843,18153
774,Switzerland County,Indiana,18,155,0,0,0,0,0,0,0,0,0,0,0,0,0,0,0,0,0,0,0,1,38.825846,-85.029679,18155
775,Tippecanoe County,Indiana,18,157,0,0,1,1,2,1,3,1,2,0,2,3,1,4,4,2,3,2,3,6,40.38926,-86.893943,18157
776,Tipton County,Indiana,18,159,0,0,0,0,0,0,1,0,0,0,0,0,0,0,0,0,0,0,0,0,40.310229,-86.056207,18159
777,Union County,Indiana,18,161,0,0,0,0,0,0,0,0,0,0,0,0,0,0,0,0,0,0,0,0,39.623111,-84.925152,18161
778,Vanderburgh County,Indiana,18,163,2,1,1,2,0,0,2,2,3,2,0,2,0,0,0,0,3,0,2,2,38.02007,-87.586166,18163
779,Vermillion County,Indiana,18,165,0,0,0,0,0,0,0,0,0,0,0,0,0,0,0,0,0,1,1,0,39.854045,-87.462071,18165
780,Vigo County,Indiana,18,167,0,0,0,0,0,0,3,0,0,0,1,0,0,1,0,1,5,0,1,4,39.429143,-87.390375,18167
781,Wabash County,Indiana,18,169,0,0,0,0,0,0,0,0,0,1,0,0,0,1,0,0,2,0,0,1,40.843717,-85.795175,18169
782,Warren County,Indiana,18,171,0,0,0,0,0,3,1,1,1,0,1,0,0,0,1,0,0,0,0,0,40.352658,-87.375847,18171
783,Warrick County,Indiana,18,173,0,0,1,1,0,0,3,0,1,1,0,0,2,0,0,0,0,1,0,0,38.097764,-87.272023,18173
784,Washington County,Indiana,18,175,0,1,0,1,0,0,0,0,0,0,0,0,0,0,1,0,0,0,0,0,38.600613,-86.104751,18175
785,Wayne County,Indiana,18,177,0,0,0,0,0,0,0,0,0,0,0,0,0,0,0,0,0,0,0,0,39.863091,-85.006735,18177
786,Wells County,Indiana,18,179,0,0,0,0,0,0,0,1,0,0,0,0,0,0,0,0,1,0,0,0,40.735273,-85.212974,18179
787,White County,Indiana,18,181,0,0,0,0,0,0,0,0,0,0,0,0,0,0,3,1,1,1,1,0,40.75095,-86.864293,18181
788,Whitley County,Indiana,18,183,0,0,1,0,0,0,0,0,0,0,0,0,0,0,0,0,0,0,0,0,41.136426,-85.501892,18183
789,Adair County,Iowa,19,1,0,0,1,0,0,0,0,0,0,0,0,0,0,0,0,0,0,1,0,0,41.328528,-94.478164,19001
790,Adams County,Iowa,19,3,0,0,0,0,0,0,0,0,0,0,0,0,0,0,0,0,0,0,0,0,41.021656,-94.696906,19003
791,Allamakee County,Iowa,19,5,3,2,1,2,8,4,5,4,2,1,11,11,9,4,5,7,2,10,3,2,43.274964,-91.382751,19005
792,Appanoose County,Iowa,19,7,0,0,0,0,0,1,0,0,0,0,0,0,0,0,0,0,0,1,3,2,40.744683,-92.870345,19007
793,Audubon County,Iowa,19,9,0,0,0,0,0,0,0,0,0,0,0,0,0,0,0,0,0,0,0,0,41.679178,-94.904312,19009
794,Benton County,Iowa,19,11,0,0,0,0,3,2,0,1,0,0,2,0,4,0,14,3,9,5,5,2,42.092547,-92.05763,19011
795,Black Hawk County,Iowa,19,13,0,0,1,2,3,3,0,2,1,1,3,5,6,2,8,3,7,4,5,2,42.472888,-92.306059,19013
796,Boone County,Iowa,19,15,0,0,1,1,0,1,0,0,0,1,0,3,4,0,5,0,2,3,3,4,42.038601,-93.939138,19015
797,Bremer County,Iowa,19,17,0,0,0,0,1,1,1,1,0,0,0,1,3,0,0,0,1,1,1,2,42.78089,-92.327586,19017
798,Buchanan County,Iowa,19,19,0,0,0,0,0,2,0,2,0,0,0,1,3,1,3,4,0,3,1,1,42.470328,-91.838666,19019
799,Buena Vista County,Iowa,19,21,1,0,0,0,0,0,0,0,0,0,0,0,0,0,0,0,1,0,0,0,42.741522,-95.141433,19021
800,Butler County,Iowa,19,23,0,1,0,0,0,0,0,0,0,0,1,0,2,0,1,0,0,0,0,0,42.734708,-92.780066,19023
801,Calhoun County,Iowa,19,25,0,0,0,0,0,0,0,0,0,0,0,0,0,0,0,0,0,0,1,0,42.38617,-94.643683,19025
802,Carroll County,Iowa,19,27,1,0,0,0,1,0,0,0,0,0,0,0,0,0,0,0,0,0,0,1,42.039492,-94.867647,19027
803,Cass County,Iowa,19,29,0,0,0,0,0,0,0,0,1,0,0,0,1,0,0,0,0,1,0,0,41.333824,-94.933302,19029
804,Cedar County,Iowa,19,31,0,0,1,0,1,1,1,0,2,1,1,0,0,0,1,5,4,1,1,2,41.772355,-91.13219,19031
805,Cerro Gordo County,Iowa,19,33,0,2,0,0,0,0,0,0,0,1,0,0,1,1,1,0,2,2,2,0,43.075171,-93.251266,19033
806,Cherokee County,Iowa,19,35,3,0,1,0,0,2,0,0,0,0,0,0,0,0,0,0,1,0,0,0,42.742738,-95.633262,19035
807,Chickasaw County,Iowa,19,37,0,0,0,0,2,0,0,0,0,1,0,2,1,0,0,2,1,1,2,0,43.059741,-92.31721,19037
808,Clarke County,Iowa,19,39,0,0,0,0,0,0,1,0,0,0,0,0,0,0,0,0,0,0,0,1,41.029191,-93.784096,19039
809,Clay County,Iowa,19,41,0,0,0,0,0,0,0,0,0,0,0,0,0,0,0,0,0,0,0,0,43.079822,-95.149726,19041
810,Clayton County,Iowa,19,43,2,1,1,3,5,5,6,10,10,10,13,12,17,6,14,12,16,8,17,10,42.840998,-91.323511,19043
811,Clinton County,Iowa,19,45,1,0,0,1,1,0,2,5,1,0,1,3,2,6,5,4,0,1,4,2,41.898073,-90.534243,19045
812,Crawford County,Iowa,19,47,0,0,0,0,0,0,0,0,0,0,0,0,0,0,0,0,0,0,1,0,42.043119,-95.38909,19047
813,Dallas County,Iowa,19,49,0,1,0,0,0,1,1,1,3,0,0,1,1,2,4,2,3,4,7,6,41.685321,-94.040707,19049
814,Davis County,Iowa,19,51,0,0,0,0,0,0,0,0,0,0,0,0,1,1,0,0,0,1,3,1,40.748089,-92.410345,19051
815,Decatur County,Iowa,19,53,1,0,0,0,0,1,0,0,1,0,0,0,1,0,1,0,0,1,2,0,40.736379,-93.78458,19053
816,Delaware County,Iowa,19,55,0,0,1,1,1,2,1,2,1,1,0,2,7,0,9,5,3,2,4,3,42.473003,-91.359443,19055
817,Des Moines County,Iowa,19,57,1,2,1,0,0,0,1,0,1,0,2,0,5,4,2,1,1,2,1,5,40.915339,-91.186925,19057
818,Dickinson County,Iowa,19,59,0,0,0,1,0,1,1,0,0,0,0,0,0,0,1,0,1,2,1,0,43.389611,-95.196057,19059
819,Dubuque County,Iowa,19,61,0,3,4,2,3,7,5,7,8,5,12,9,29,17,27,22,36,33,30,27,42.463481,-90.878771,19061
820,Emmet County,Iowa,19,63,0,0,0,0,0,0,0,0,0,0,0,0,0,0,0,1,1,0,0,0,43.377984,-94.66937,19063
821,Fayette County,Iowa,19,65,0,0,1,3,1,3,7,1,2,2,3,4,1,1,2,4,3,3,1,1,42.86445,-91.839373,19065
822,Floyd County,Iowa,19,67,1,0,0,1,0,0,0,0,0,0,0,1,1,1,0,0,2,0,1,1,43.052741,-92.787367,19067
823,Franklin County,Iowa,19,69,0,0,0,0,0,0,0,0,0,1,0,0,0,0,0,0,0,0,0,0,42.736549,-93.271425,19069
824,Fremont County,Iowa,19,71,0,0,0,1,1,0,0,0,0,0,0,0,0,0,0,0,0,0,0,0,40.743726,-95.599516,19071
825,Greene County,Iowa,19,73,1,0,0,0,2,0,0,1,0,0,0,0,0,0,0,0,0,0,0,0,42.042494,-94.388703,19073
826,Grundy County,Iowa,19,75,0,0,0,0,0,0,0,0,0,0,0,0,0,0,0,0,2,0,0,0,42.403323,-92.790261,19075
827,Guthrie County,Iowa,19,77,0,0,0,1,0,0,0,0,0,0,0,0,0,0,0,0,0,0,1,0,41.683573,-94.501272,19077
828,Hamilton County,Iowa,19,79,0,0,0,0,0,2,1,1,0,1,0,1,1,1,0,0,0,1,0,0,42.390768,-93.709198,19079
829,Hancock County,Iowa,19,81,0,0,0,0,0,0,0,0,0,0,1,0,0,0,0,0,0,0,0,1,43.075411,-93.743697,19081
830,Hardin County,Iowa,19,83,0,1,2,0,0,0,0,1,0,0,1,1,3,1,0,1,1,0,1,1,42.389955,-93.241081,19083
831,Harrison County,Iowa,19,85,0,0,0,0,0,0,0,0,0,0,0,0,0,0,0,0,0,0,0,0,41.688584,-95.827149,19085
832,Henry County,Iowa,19,87,0,0,0,0,0,1,1,0,0,0,0,1,1,1,1,0,0,2,4,4,40.985864,-91.54427,19087
833,Howard County,Iowa,19,89,0,0,0,0,0,3,2,1,0,0,0,0,1,0,1,0,1,0,1,1,43.365313,-92.321908,19089
834,Humboldt County,Iowa,19,91,0,0,0,0,0,0,0,0,0,0,0,0,0,0,0,0,0,0,0,0,42.782221,-94.202775,19091
835,Ida County,Iowa,19,93,0,0,0,0,0,0,0,0,0,0,0,0,0,0,1,0,0,0,0,0,42.39186,-95.507421,19093
836,Iowa County,Iowa,19,95,5,2,0,3,1,2,8,6,3,2,0,1,5,2,1,3,0,3,3,2,41.683918,-92.059123,19095
837,Jackson County,Iowa,19,97,0,1,1,0,2,1,3,1,3,4,4,3,12,10,8,6,7,4,6,5,42.164281,-90.574597,19097
838,Jasper County,Iowa,19,99,1,1,1,0,1,2,2,0,1,1,0,1,1,3,0,1,2,2,0,2,41.685686,-93.052971,19099
839,Jefferson County,Iowa,19,101,0,0,0,1,0,0,0,0,0,0,0,1,0,3,3,2,1,4,4,0,41.00688,-91.967137,19101
840,Johnson County,Iowa,19,103,2,3,4,6,13,11,28,16,25,24,13,26,40,42,66,38,43,58,57,43,41.668737,-91.588812,19103
841,Jones County,Iowa,19,105,1,0,2,0,0,0,0,1,0,0,0,1,0,0,3,1,4,2,1,5,42.125118,-91.116914,19105
842,Keokuk County,Iowa,19,107,0,0,1,0,1,1,1,0,0,0,0,1,0,0,1,1,1,1,1,2,41.331182,-92.167721,19107
843,Kossuth County,Iowa,19,109,0,0,1,1,0,0,0,0,1,1,0,0,0,1,0,1,0,0,0,0,43.212478,-94.213983,19109
844,Lee County,Iowa,19,111,1,0,2,0,0,0,2,2,2,0,0,1,0,2,2,0,0,4,1,4,40.647588,-91.477157,19111
845,Linn County,Iowa,19,113,2,2,6,1,5,10,10,5,8,8,10,13,15,19,39,42,33,47,40,44,42.077951,-91.597674,19113
846,Louisa County,Iowa,19,115,0,0,0,0,0,2,2,3,1,0,0,3,0,1,1,0,0,0,2,0,41.218211,-91.256994,19115
847,Lucas County,Iowa,19,117,0,0,0,0,0,0,0,0,2,0,0,0,1,0,0,0,0,0,0,2,41.033344,-93.331467,19117
848,Lyon County,Iowa,19,119,0,0,0,1,0,0,0,0,0,0,0,0,0,0,0,0,0,0,0,0,43.38358,-96.207201,19119
849,Madison County,Iowa,19,121,0,0,0,0,0,0,0,0,1,0,2,0,1,0,2,0,0,0,0,0,41.330622,-94.015184,19121
850,Mahaska County,Iowa,19,123,0,0,0,0,0,1,0,1,1,0,0,1,1,0,4,0,0,1,4,2,41.330797,-92.636366,19123
851,Marion County,Iowa,19,125,0,2,1,0,1,0,2,0,0,0,1,4,4,9,6,3,1,2,4,5,41.331455,-93.093849,19125
852,Marshall County,Iowa,19,127,0,2,2,0,1,1,1,1,0,0,0,2,1,0,5,2,2,2,0,0,42.041691,-92.981452,19127
853,Mills County,Iowa,19,129,0,0,0,0,0,1,0,0,0,0,0,0,0,0,0,0,0,0,0,1,41.033703,-95.619101,19129
854,Mitchell County,Iowa,19,131,0,0,0,0,0,0,0,1,0,0,0,1,0,0,0,0,0,0,0,0,43.348564,-92.784466,19131
855,Monona County,Iowa,19,133,0,0,0,0,0,0,0,0,0,0,0,0,0,0,0,0,0,0,0,0,42.049432,-95.956566,19133
856,Monroe County,Iowa,19,135,0,0,1,0,0,0,2,0,0,0,0,1,1,1,1,0,0,2,0,0,41.028847,-92.869642,19135
857,Montgomery County,Iowa,19,137,0,0,0,0,0,0,0,0,0,0,0,1,0,0,2,0,0,0,0,0,41.021735,-95.15779,19137
858,Muscatine County,Iowa,19,139,2,3,3,6,9,2,4,5,4,2,1,7,8,11,11,7,2,7,3,5,41.483776,-91.118699,19139
859,O'Brien County,Iowa,19,141,0,0,0,0,0,0,0,0,0,0,0,0,0,0,0,0,0,0,0,0,43.083746,-95.625624,19141
860,Osceola County,Iowa,19,143,0,0,0,0,0,0,0,0,0,0,0,0,0,0,0,1,0,0,0,0,43.378542,-95.633788,19143
861,Page County,Iowa,19,145,0,0,0,0,0,0,0,0,0,0,0,0,0,0,1,0,0,0,2,0,40.73909,-95.14429,19145
862,Palo Alto County,Iowa,19,147,0,0,0,1,0,0,0,0,0,0,0,0,0,0,0,0,0,0,0,0,43.075854,-94.667297,19147
863,Plymouth County,Iowa,19,149,0,0,0,0,0,1,1,0,0,1,0,0,0,0,0,0,0,1,0,0,42.737585,-96.215864,19149
864,Pocahontas County,Iowa,19,151,0,0,1,0,0,0,0,0,1,0,0,0,0,0,0,0,0,0,0,0,42.734033,-94.678279,19151
865,Polk County,Iowa,19,153,1,2,0,2,7,8,4,7,6,4,3,10,8,18,17,14,21,11,22,20,41.684281,-93.56972,19153
866,Pottawattamie County,Iowa,19,155,0,0,0,0,0,2,1,1,0,1,0,0,1,0,1,0,3,2,0,0,41.340184,-95.544905,19155
867,Poweshiek County,Iowa,19,157,0,0,0,0,1,0,0,0,2,1,0,1,2,2,0,1,0,1,3,0,41.684526,-92.522882,19157
868,Ringgold County,Iowa,19,159,0,0,0,0,0,0,0,0,0,0,0,0,0,0,0,0,1,0,0,0,40.735334,-94.244251,19159
869,Sac County,Iowa,19,161,0,0,0,0,0,0,0,0,0,0,0,0,0,0,0,0,0,0,0,0,42.387526,-95.105224,19161
870,Scott County,Iowa,19,163,4,5,6,2,5,6,2,7,6,3,3,11,12,13,14,8,14,11,9,6,41.641679,-90.62229,19163
871,Shelby County,Iowa,19,165,0,0,0,0,0,0,0,0,1,0,0,0,0,0,0,0,0,1,0,0,41.679014,-95.308917,19165
872,Sioux County,Iowa,19,167,0,0,0,0,0,0,0,1,0,0,0,1,0,0,3,0,1,0,0,0,43.082854,-96.177929,19167
873,Story County,Iowa,19,169,1,3,5,3,4,0,2,1,2,0,1,2,3,2,3,5,5,1,3,4,42.037538,-93.466093,19169
874,Tama County,Iowa,19,171,0,0,0,0,0,0,0,0,0,0,0,0,0,0,0,0,2,2,2,3,42.074848,-92.529412,19171
875,Taylor County,Iowa,19,173,0,0,0,0,0,0,0,0,0,0,0,0,0,0,0,0,0,0,0,0,40.737949,-94.697108,19173
876,Union County,Iowa,19,175,0,0,0,0,0,0,0,0,0,0,1,0,0,0,0,0,0,0,0,0,41.02855,-94.245091,19175
877,Van Buren County,Iowa,19,177,0,0,0,0,0,0,0,0,0,0,0,0,0,0,0,0,0,0,2,2,40.754117,-91.952943,19177
878,Wapello County,Iowa,19,179,1,2,0,1,0,1,1,0,0,0,1,2,2,0,3,2,0,1,6,8,41.031263,-92.409482,19179
879,Warren County,Iowa,19,181,0,0,0,1,0,1,1,1,2,0,2,0,0,0,1,4,0,2,6,2,41.336769,-93.564366,19181
880,Washington County,Iowa,19,183,0,0,0,0,0,0,2,0,0,1,0,1,3,2,4,5,0,3,1,2,41.329401,-91.725052,19183
881,Wayne County,Iowa,19,185,0,1,1,0,0,0,0,0,0,0,0,0,0,0,1,1,0,0,0,0,40.739983,-93.332613,19185
882,Webster County,Iowa,19,187,0,0,2,0,2,0,2,0,0,0,0,2,3,0,1,1,2,5,2,2,42.434397,-94.179157,19187
883,Winnebago County,Iowa,19,189,0,0,0,0,0,0,0,0,0,0,0,1,1,0,2,0,1,0,1,0,43.378124,-93.743488,19189
884,Winneshiek County,Iowa,19,191,0,0,2,1,3,1,3,7,2,5,6,8,13,4,6,7,8,9,10,4,43.292989,-91.850788,19191
885,Woodbury County,Iowa,19,193,0,0,0,0,0,0,1,0,0,0,0,0,3,0,0,0,1,1,1,0,42.39322,-96.053296,19193
886,Worth County,Iowa,19,195,0,0,0,0,0,0,1,0,1,1,1,0,0,0,0,0,0,0,1,0,43.373491,-93.248533,19195
887,Wright County,Iowa,19,197,0,0,0,0,0,0,1,2,0,0,0,0,1,0,0,0,0,0,0,0,42.733007,-93.734735,19197
888,Allen County,Kansas,20,1,0,0,0,0,0,0,0,0,0,0,0,0,0,0,0,0,0,2,2,0,37.884229,-95.300945,20001
889,Anderson County,Kansas,20,3,0,0,0,0,0,0,0,0,0,0,0,1,0,0,0,0,0,0,0,0,38.215114,-95.292046,20003
890,Atchison County,Kansas,20,5,0,0,0,0,0,0,0,0,0,0,0,0,0,0,0,0,0,0,0,0,39.532544,-95.313398,20005
891,Barber County,Kansas,20,7,0,0,0,0,1,0,0,0,0,0,0,0,0,0,0,0,0,1,0,0,37.222906,-98.685052,20007
892,Barton County,Kansas,20,9,0,0,0,0,0,0,0,0,0,0,0,0,0,0,0,1,0,0,0,0,38.481239,-98.767837,20009
893,Bourbon County,Kansas,20,11,0,0,0,0,0,0,0,0,0,0,1,0,0,0,0,1,1,1,1,0,37.8561,-94.850928,20011
894,Brown County,Kansas,20,13,0,0,0,1,0,0,0,0,0,0,0,0,0,0,0,0,0,0,0,0,39.825931,-95.569905,20013
895,Butler County,Kansas,20,15,0,1,0,0,0,0,1,0,0,0,1,0,0,1,0,1,0,0,0,0,37.773681,-96.838762,20015
896,Chase County,Kansas,20,17,0,0,0,0,0,0,0,0,0,0,0,0,0,0,0,0,0,0,1,0,38.298553,-96.594064,20017
897,Chautauqua County,Kansas,20,19,0,0,0,0,0,0,0,0,0,0,0,0,0,0,0,0,0,0,0,0,37.154259,-96.245396,20019
898,Cherokee County,Kansas,20,21,0,0,0,0,0,0,0,0,0,0,1,0,0,1,0,1,0,1,0,0,37.169392,-94.845698,20021
899,Cheyenne County,Kansas,20,23,0,0,0,0,0,0,0,0,0,0,0,0,0,0,0,0,0,0,0,0,39.789256,-101.727302,20023
900,Clark County,Kansas,20,25,0,0,0,0,0,0,0,0,0,0,0,0,0,0,0,0,0,0,0,0,37.233831,-99.813869,20025
901,Clay County,Kansas,20,27,0,0,0,0,0,0,0,0,0,0,0,0,0,0,0,0,0,0,0,0,39.344964,-97.168853,20027
902,Cloud County,Kansas,20,29,0,0,0,0,0,0,0,0,0,0,0,0,1,0,0,0,0,0,0,0,39.487329,-97.64139,20029
903,Coffey County,Kansas,20,31,0,0,0,0,0,0,0,0,0,0,0,0,1,0,0,0,0,0,0,0,38.23645,-95.729137,20031
904,Comanche County,Kansas,20,33,0,0,0,0,0,0,0,0,0,0,0,0,0,0,0,0,0,0,0,0,37.189071,-99.254089,20033
905,Cowley County,Kansas,20,35,0,0,0,0,0,0,0,0,0,0,1,0,0,0,0,0,2,1,0,0,37.234507,-96.837247,20035
906,Crawford County,Kansas,20,37,0,0,0,0,0,0,0,0,1,0,0,2,1,2,1,0,2,2,1,0,37.505628,-94.853941,20037
907,Decatur County,Kansas,20,39,0,0,0,0,0,0,0,0,0,0,0,0,0,0,0,0,0,0,0,0,39.783542,-100.459708,20039
908,Dickinson County,Kansas,20,41,0,0,0,0,0,0,0,0,0,0,0,0,0,1,0,2,0,0,0,0,38.867735,-97.157943,20041
909,Doniphan County,Kansas,20,43,0,0,0,0,0,0,0,0,0,0,0,0,0,0,0,0,0,0,0,0,39.788502,-95.147225,20043
910,Douglas County,Kansas,20,45,0,4,1,0,0,0,0,0,4,1,2,3,6,2,0,1,1,2,0,3,38.896573,-95.290529,20045
911,Edwards County,Kansas,20,47,0,0,0,0,0,0,0,0,0,0,0,0,0,0,0,0,0,0,0,0,37.883595,-99.304746,20047
912,Elk County,Kansas,20,49,0,0,0,0,0,0,0,0,0,0,0,0,0,0,0,0,0,0,0,0,37.456026,-96.244642,20049
913,Ellis County,Kansas,20,51,0,0,0,0,0,0,0,0,1,0,0,0,0,0,0,0,0,0,0,0,38.914596,-99.317329,20051
914,Ellsworth County,Kansas,20,53,0,0,0,0,0,0,0,0,0,0,0,0,0,0,0,0,0,0,0,0,38.700845,-98.205355,20053
915,Finney County,Kansas,20,55,0,0,0,0,0,0,0,0,0,0,0,0,0,0,0,0,0,0,1,0,38.049855,-100.739929,20055
916,Ford County,Kansas,20,57,0,0,1,0,0,0,0,0,0,0,1,1,0,0,0,0,4,1,1,0,37.688365,-99.884734,20057
917,Franklin County,Kansas,20,59,0,0,0,0,0,0,0,0,1,0,0,0,1,0,0,1,0,0,0,0,38.558019,-95.278962,20059
918,Geary County,Kansas,20,61,0,0,0,0,0,0,0,0,0,0,0,0,0,0,1,0,1,1,1,0,39.002155,-96.768038,20061
919,Gove County,Kansas,20,63,0,0,0,0,0,0,0,0,0,0,0,0,0,0,0,0,0,0,0,0,38.917239,-100.48736,20063
920,Graham County,Kansas,20,65,0,0,0,0,0,0,0,0,0,0,0,0,0,0,0,0,0,0,0,0,39.349445,-99.880952,20065
921,Grant County,Kansas,20,67,0,0,0,0,0,0,0,0,0,0,0,0,0,0,0,0,0,0,0,0,37.547537,-101.299362,20067
922,Gray County,Kansas,20,69,0,0,0,0,0,0,0,0,0,0,0,0,0,0,0,0,0,1,0,0,37.744513,-100.451716,20069
923,Greeley County,Kansas,20,71,0,0,0,0,0,0,0,0,0,0,0,0,0,0,0,0,0,0,0,0,38.480408,-101.805984,20071
924,Greenwood County,Kansas,20,73,0,0,0,0,0,0,0,0,0,0,0,1,0,0,0,1,0,0,0,0,37.878659,-96.242232,20073
925,Hamilton County,Kansas,20,75,0,0,0,0,0,0,0,0,0,0,0,0,0,0,0,0,0,0,0,0,37.995244,-101.793689,20075
926,Harper County,Kansas,20,77,0,0,0,0,0,0,0,0,0,0,0,0,0,0,0,0,0,0,0,0,37.188184,-98.06659,20077
927,Harvey County,Kansas,20,79,0,0,0,0,0,0,0,0,0,0,0,0,0,0,0,0,0,0,1,0,38.050144,-97.436707,20079
928,Haskell County,Kansas,20,81,0,0,0,0,0,0,0,0,0,0,0,0,0,0,0,1,0,0,0,0,37.55855,-100.876869,20081
929,Hodgeman County,Kansas,20,83,0,0,0,0,0,0,0,0,0,0,0,0,0,0,0,0,0,0,0,0,38.087493,-99.898407,20083
930,Jackson County,Kansas,20,85,0,0,0,0,0,0,0,0,0,0,0,0,0,0,0,0,1,1,1,0,39.410989,-95.794509,20085
931,Jefferson County,Kansas,20,87,0,0,0,0,0,0,1,1,0,0,0,0,0,0,0,0,0,1,1,0,39.239644,-95.375314,20087
932,Jewell County,Kansas,20,89,0,0,0,0,0,0,0,0,0,0,0,0,0,0,0,0,0,0,0,0,39.77701,-98.222584,20089
933,Johnson County,Kansas,20,91,0,1,0,0,1,2,3,4,7,5,3,5,7,3,5,7,5,6,4,6,38.883907,-94.82233,20091
934,Kearny County,Kansas,20,93,0,0,0,0,0,0,0,0,0,0,0,0,0,0,0,0,0,0,0,0,37.994461,-101.308136,20093
935,Kingman County,Kansas,20,95,0,0,0,0,0,0,0,0,0,0,0,1,0,0,0,0,1,0,0,0,37.552951,-98.144529,20095
936,Kiowa County,Kansas,20,97,0,0,0,0,0,0,0,0,0,0,0,0,0,0,0,0,0,0,0,1,37.561231,-99.286539,20097
937,Labette County,Kansas,20,99,0,0,0,0,0,1,0,0,0,0,0,0,2,1,1,1,1,1,3,0,37.191468,-95.297473,20099
938,Lane County,Kansas,20,101,0,0,0,0,0,0,0,0,0,0,0,0,0,0,0,0,0,0,0,0,38.481286,-100.466185,20101
939,Leavenworth County,Kansas,20,103,1,0,0,1,0,0,0,0,1,0,2,0,0,1,1,1,3,1,2,0,39.189511,-95.038977,20103
940,Lincoln County,Kansas,20,105,0,0,0,0,0,0,0,0,0,0,0,0,0,0,0,0,0,0,0,0,39.047276,-98.214265,20105
941,Linn County,Kansas,20,107,0,0,0,0,0,0,0,0,0,0,0,0,0,1,0,0,0,0,0,0,38.216549,-94.844932,20107
942,Logan County,Kansas,20,109,0,0,0,0,0,0,0,0,0,0,0,0,0,0,0,0,0,0,0,0,38.91327,-101.157407,20109
943,Lyon County,Kansas,20,111,0,0,0,0,0,0,0,0,0,0,0,0,1,0,0,3,1,0,0,0,38.455498,-96.161589,20111
944,McPherson County,Kansas,20,113,0,0,0,0,0,0,0,0,0,0,0,0,0,0,0,0,1,0,0,0,38.395812,-97.647489,20113
945,Marion County,Kansas,20,115,0,0,0,0,0,0,0,0,0,0,0,0,1,0,0,0,0,0,0,0,38.359647,-97.102771,20115
946,Marshall County,Kansas,20,117,0,0,0,0,0,0,0,0,0,0,0,1,0,0,0,0,0,0,0,0,39.782709,-96.521243,20117
947,Meade County,Kansas,20,119,0,0,0,0,0,0,0,0,0,0,0,0,0,0,0,0,0,0,0,0,37.243886,-100.360094,20119
948,Miami County,Kansas,20,121,0,0,1,0,0,0,0,0,0,0,0,0,0,0,1,1,0,0,0,0,38.566772,-94.832963,20121
949,Mitchell County,Kansas,20,123,0,0,0,0,0,0,0,0,0,0,0,0,0,0,0,0,0,0,0,0,39.393026,-98.207362,20123
950,Montgomery County,Kansas,20,125,1,0,0,0,0,0,0,0,0,0,1,0,1,1,0,1,1,0,0,0,37.189537,-95.742403,20125
951,Morris County,Kansas,20,127,0,0,0,0,0,0,0,0,0,0,0,0,1,0,1,0,0,0,0,0,38.687696,-96.644905,20127
952,Morton County,Kansas,20,129,0,0,0,0,0,0,0,0,0,0,0,0,0,0,0,0,0,0,0,0,37.18525,-101.809516,20129
953,Nemaha County,Kansas,20,131,0,0,0,0,0,0,0,0,0,0,0,1,0,0,0,0,0,0,0,0,39.791043,-96.005381,20131
954,Neosho County,Kansas,20,133,0,0,0,0,0,0,0,1,0,1,0,0,0,0,0,0,1,1,0,1,37.564283,-95.315683,20133
955,Ness County,Kansas,20,135,0,0,0,0,0,0,0,0,0,0,0,0,0,0,0,0,0,0,0,0,38.480437,-99.908745,20135
956,Norton County,Kansas,20,137,0,0,0,0,0,0,0,0,0,0,0,0,0,0,0,0,0,0,0,0,39.783867,-99.899235,20137
957,Osage County,Kansas,20,139,0,0,0,0,0,0,0,0,1,0,0,0,0,0,0,0,0,0,1,0,38.649706,-95.727275,20139
958,Osborne County,Kansas,20,141,0,0,0,0,0,0,0,0,0,0,0,0,0,0,0,0,0,1,0,0,39.348649,-98.767876,20141
959,Ottawa County,Kansas,20,143,0,0,0,0,0,0,0,0,0,0,0,0,0,0,1,0,0,0,0,0,39.137963,-97.654803,20143
960,Pawnee County,Kansas,20,145,0,0,0,0,0,0,0,0,0,0,0,0,0,0,0,0,0,0,0,0,38.182873,-99.232154,20145
961,Phillips County,Kansas,20,147,0,0,0,0,0,0,0,0,0,0,0,0,0,0,0,0,0,0,0,0,39.784506,-99.34215,20147
962,Pottawatomie County,Kansas,20,149,0,1,0,0,0,0,0,0,0,0,0,1,0,0,0,1,0,0,0,0,39.382187,-96.337113,20149
963,Pratt County,Kansas,20,151,0,0,0,0,0,0,0,0,0,0,0,0,0,0,0,0,1,1,0,0,37.647594,-98.74012,20151
964,Rawlins County,Kansas,20,153,0,0,0,0,0,0,0,0,0,0,0,0,0,0,0,0,0,0,0,0,39.786198,-101.076738,20153
965,Reno County,Kansas,20,155,0,0,0,0,0,0,0,4,1,0,0,0,1,0,0,2,2,0,3,0,37.948185,-98.078346,20155
966,Republic County,Kansas,20,157,0,0,0,0,0,0,0,0,0,0,0,0,0,0,0,0,0,0,0,0,39.82891,-97.650921,20157
967,Rice County,Kansas,20,159,0,0,0,0,0,0,0,0,0,0,0,0,0,0,0,1,0,0,0,0,38.347178,-98.201415,20159
968,Riley County,Kansas,20,161,0,0,0,1,0,0,0,1,1,2,0,0,1,1,0,0,1,0,2,1,39.291211,-96.727489,20161
969,Rooks County,Kansas,20,163,0,0,0,0,0,0,0,0,0,0,0,0,0,0,0,0,1,0,0,0,39.346006,-99.324492,20163
970,Rush County,Kansas,20,165,0,0,0,0,0,0,0,0,0,0,0,0,0,0,0,0,0,0,0,0,38.523592,-99.309183,20165
971,Russell County,Kansas,20,167,0,0,0,0,0,0,0,0,0,0,0,0,0,0,0,0,0,0,1,0,38.916839,-98.765638,20167
972,Saline County,Kansas,20,169,0,0,0,0,0,0,1,1,0,0,0,0,1,0,0,1,0,0,0,0,38.786327,-97.650153,20169
973,Scott County,Kansas,20,171,0,0,0,0,0,0,0,0,0,0,0,0,0,0,0,0,0,0,0,0,38.481877,-100.90636,20171
974,Sedgwick County,Kansas,20,173,0,0,0,0,0,0,0,3,0,0,3,2,5,3,6,5,6,1,4,2,37.683807,-97.459451,20173
975,Seward County,Kansas,20,175,0,0,0,0,0,0,0,0,0,0,0,0,0,0,0,0,0,0,0,0,37.180585,-100.854741,20175
976,Shawnee County,Kansas,20,177,0,0,1,0,1,1,0,0,0,0,0,0,1,0,1,2,0,3,1,0,39.041805,-95.755664,20177
977,Sheridan County,Kansas,20,179,0,0,0,0,0,0,0,0,0,0,0,0,0,0,0,0,0,0,0,0,39.350543,-100.441206,20179
978,Sherman County,Kansas,20,181,0,0,0,0,0,0,0,0,0,0,0,0,0,0,0,0,0,0,0,0,39.351352,-101.719859,20181
979,Smith County,Kansas,20,183,0,0,0,0,0,0,0,0,0,0,0,0,0,0,0,0,0,0,0,0,39.78466,-98.78543,20183
980,Stafford County,Kansas,20,185,0,0,0,0,0,0,0,0,0,1,0,0,0,0,0,0,0,0,0,0,38.03563,-98.719889,20185
981,Stanton County,Kansas,20,187,0,0,0,0,0,0,0,0,0,0,0,0,0,0,0,0,0,0,0,0,37.565932,-101.789383,20187
982,Stevens County,Kansas,20,189,0,0,0,0,0,0,0,0,0,0,0,0,0,0,0,0,0,0,0,0,37.202356,-101.315796,20189
983,Sumner County,Kansas,20,191,0,0,0,0,0,0,0,0,0,0,0,0,0,0,1,0,0,0,0,0,37.236663,-97.493349,20191
984,Thomas County,Kansas,20,193,0,0,0,0,0,0,0,0,0,0,0,0,0,0,0,0,0,0,0,0,39.357706,-101.083439,20193
985,Trego County,Kansas,20,195,0,0,0,0,0,0,0,0,0,0,0,0,0,0,0,0,0,0,0,0,38.921302,-99.865423,20195
986,Wabaunsee County,Kansas,20,197,0,0,0,0,0,0,0,0,0,0,0,0,0,0,0,0,1,0,0,0,38.955154,-96.201262,20197
987,Wallace County,Kansas,20,199,0,0,0,0,0,0,0,0,0,0,0,0,0,0,0,0,0,0,0,0,38.926626,-101.771103,20199
988,Washington County,Kansas,20,201,0,0,0,0,0,0,0,0,0,0,0,0,0,0,0,0,0,0,0,0,39.776714,-97.095611,20201
989,Wichita County,Kansas,20,203,0,0,0,0,0,0,0,0,0,0,0,0,0,0,0,0,0,0,0,0,38.481922,-101.347434,20203
990,Wilson County,Kansas,20,205,0,0,0,0,0,0,0,0,0,0,0,0,0,0,0,0,0,0,0,0,37.558515,-95.745175,20205
991,Woodson County,Kansas,20,207,0,0,0,0,0,0,0,0,0,0,0,0,0,0,0,0,0,0,0,0,37.888484,-95.757553,20207
992,Wyandotte County,Kansas,20,209,0,0,0,0,0,0,2,1,0,0,1,0,2,2,3,3,2,0,2,0,39.115384,-94.763087,20209
993,Adair County,Kentucky,21,1,0,0,0,0,0,0,0,1,0,0,0,0,0,0,0,0,0,1,0,0,37.105541,-85.281401,21001
994,Allen County,Kentucky,21,3,0,0,0,0,0,0,0,0,0,0,0,0,0,0,1,0,0,0,0,0,36.75077,-86.192458,21003
995,Anderson County,Kentucky,21,5,0,0,0,0,0,1,0,0,0,0,0,0,0,1,0,0,0,0,0,1,38.005396,-84.986417,21005
996,Ballard County,Kentucky,21,7,0,0,0,0,0,0,0,0,0,0,0,0,0,0,0,0,1,0,0,0,37.05112,-89.009178,21007
997,Barren County,Kentucky,21,9,0,0,0,0,0,0,0,0,0,0,0,0,0,2,1,0,0,0,0,0,36.963614,-85.92499,21009
998,Bath County,Kentucky,21,11,0,0,0,0,0,0,0,0,0,0,0,0,0,0,0,0,0,0,0,0,38.152249,-83.737641,21011
999,Bell County,Kentucky,21,13,0,0,0,0,0,0,0,0,0,0,0,0,0,0,0,0,0,0,0,0,36.72268,-83.681046,21013
1000,Boone County,Kentucky,21,15,0,0,0,0,0,0,0,0,0,0,0,1,0,1,2,1,2,1,0,2,38.974595,-84.731444,21015
1001,Bourbon County,Kentucky,21,17,0,0,0,0,0,0,0,0,0,0,0,0,0,0,0,0,0,0,0,0,38.202562,-84.20986,21017
1002,Boyd County,Kentucky,21,19,0,0,0,0,0,0,0,0,0,0,0,0,1,0,0,1,0,0,1,0,38.360004,-82.681406,21019
1003,Boyle County,Kentucky,21,21,0,0,0,0,0,0,0,0,0,0,0,0,0,0,1,0,0,0,0,0,37.6182,-84.873016,21021
1004,Bracken County,Kentucky,21,23,0,0,0,0,0,0,0,0,0,0,0,0,0,0,1,0,0,0,0,1,38.678523,-84.100355,21023
1005,Breathitt County,Kentucky,21,25,0,0,0,0,0,0,0,0,0,0,0,0,0,0,0,0,0,0,0,0,37.521178,-83.322401,21025
1006,Breckinridge County,Kentucky,21,27,0,0,0,0,0,0,0,0,0,0,0,0,0,0,1,0,0,0,0,0,37.778109,-86.432829,21027
1007,Bullitt County,Kentucky,21,29,1,0,0,0,1,0,1,0,0,0,0,0,0,0,0,1,0,0,0,0,37.969572,-85.703036,21029
1008,Butler County,Kentucky,21,31,1,0,0,0,0,0,0,0,0,0,0,0,0,0,0,0,0,0,0,0,37.207013,-86.682471,21031
1009,Caldwell County,Kentucky,21,33,0,0,0,0,0,0,0,0,0,0,0,0,0,0,0,0,0,0,0,0,37.148643,-87.87051,21033
1010,Calloway County,Kentucky,21,35,0,0,0,0,0,0,0,0,0,0,0,0,0,0,0,0,0,0,0,0,36.620978,-88.274086,21035
1011,Campbell County,Kentucky,21,37,0,0,0,0,0,0,0,0,0,0,0,1,1,0,0,0,0,0,1,0,38.946981,-84.379583,21037
1012,Carlisle County,Kentucky,21,39,0,0,0,0,0,0,0,0,0,0,0,0,0,1,0,0,0,0,0,0,36.857726,-88.975757,21039
1013,Carroll County,Kentucky,21,41,0,0,0,0,0,0,0,0,0,0,0,1,1,1,6,0,0,0,0,0,38.668284,-85.124083,21041
1014,Carter County,Kentucky,21,43,0,0,0,0,0,0,0,0,0,0,0,0,1,3,0,0,0,0,0,0,38.309555,-83.048821,21043
1015,Casey County,Kentucky,21,45,0,0,0,0,0,0,0,0,0,0,0,0,0,0,0,0,0,0,0,0,37.321962,-84.92822,21045
1016,Christian County,Kentucky,21,47,2,2,0,0,1,0,0,1,0,0,0,0,0,0,0,0,0,0,0,0,36.893388,-87.493554,21047
1017,Clark County,Kentucky,21,49,0,0,1,0,0,0,0,0,0,0,0,0,0,0,1,0,0,0,0,0,37.970133,-84.144974,21049
1018,Clay County,Kentucky,21,51,0,0,0,0,0,0,0,0,0,0,0,0,0,0,0,0,0,0,0,0,37.164466,-83.710763,21051
1019,Clinton County,Kentucky,21,53,0,0,0,0,0,0,0,0,0,0,0,0,0,0,0,0,0,0,0,0,36.729124,-85.153499,21053
1020,Crittenden County,Kentucky,21,55,0,0,0,0,0,0,0,0,0,0,0,0,0,0,0,0,0,0,0,0,37.358149,-88.10501,21055
1021,Cumberland County,Kentucky,21,57,0,1,0,0,0,0,0,0,0,0,0,0,0,0,0,0,0,0,0,0,36.784227,-85.393499,21057
1022,Daviess County,Kentucky,21,59,0,0,0,0,0,0,0,0,0,0,0,1,0,0,0,0,0,0,0,0,37.731671,-87.087139,21059
1023,Edmonson County,Kentucky,21,61,0,0,0,0,0,0,0,0,0,0,0,0,0,0,0,0,0,0,0,0,37.227856,-86.217778,21061
1024,Elliott County,Kentucky,21,63,0,0,0,0,0,0,0,0,0,0,0,0,0,0,0,0,0,0,0,0,38.116425,-83.097541,21063
1025,Estill County,Kentucky,21,65,0,0,1,0,0,0,0,0,0,0,0,0,0,0,1,0,0,0,0,0,37.69246,-83.963927,21065
1026,Fayette County,Kentucky,21,67,1,0,2,2,0,0,0,0,0,1,0,0,0,0,1,0,1,0,0,0,38.040157,-84.458443,21067
1027,Fleming County,Kentucky,21,69,0,0,0,0,0,0,0,0,0,0,0,0,0,0,0,0,0,0,0,0,38.368431,-83.706152,21069
